address,lat,long,convenient
"31 South Western Highway, PINJARRA , Western Australia",-32.6145387,115.8938472,True
"194 Great Eastern Highway, ASCOT , Western Australia",-31.9329157,115.9400686,True
"174 Balcatta Road, BALCATTA , Western Australia",-31.8598506,115.8097253,True
"102 Princess Road, BALGA , Western Australia",-31.8564856,115.8375112,True
"1/300 Joseph Banks Bvd, BANKSIA GROVE , Western Australia",-31.7031131,115.8032209,True
"302-318 Collier Road, BASSENDEAN , Western Australia",-31.9071577,115.9421304,True
"35 Port Kembla Drive, BIBRA LAKE , Western Australia",-32.1012766,115.8012065,True
"492 Marmion Street, BOORAGOON , Western Australia",-32.0364814,115.8379295,True
"270 Butler Bvd, BUTLER , Western Australia",-31.6373744,115.6989813,False
"25 Abernethy Road, BYFORD , Western Australia",-32.2192227,115.9750366,False
"215 Campbell Road, CANNING VALE , Western Australia",-32.0980751,115.9199446,True
"232 Orrong Road, CARLISLE , Western Australia",-31.97182365,115.91805541255084,True
"2131 West Swan Road, CAVERSHAM , Western Australia",-31.8733655,115.978168,True
"814 North Lake Road, COCKBURN CENTRAL , Western Australia",-32.1200534,115.8467146,True
"2 Haydock Street, FORRESTDALE , Western Australia",-32.1259167,115.9578071,True
"303 Corfield Street, GOSNELLS , Western Australia",-32.0808532,115.9886829,True
"13 Lakes Road, GREENFIELDS , Western Australia",-32.516753,115.7693875,False
"1 Eaglemont Street, GREENFIELDS , Western Australia",-32.5207908,115.7532026,True
"120 Yellowwood Ave, HARRISDALE , Western Australia",-32.1279025,115.9256457,True
"1256 Armadale Road, ARMADALE , Western Australia",-32.148061,115.9866245,True
"8 Buick Way, JOONDALUP , Western Australia",-31.7532914,115.7649758,True
"4 Church Street, KELMSCOTT , Western Australia",-32.1194558,116.0177932,True
"105 Champion Drive, KELMSCOTT , Western Australia",-32.1295024,116.000332,True
"8 Mullingar Way, LANDSDALE , Western Australia",-31.805382,115.8357837,True
"1969 Albany Highway, MADDINGTON , Western Australia",-32.0466998,115.9753996,True
"650 Marshall Road, MALAGA , Western Australia",-31.8572579,115.9078726,False
"324 The Broadway, ELLENBROOK , Western Australia",-31.7712001,115.9690148,False
"296 Pinjarra Road, MANDURAH , Western Australia",-32.5351937,115.7166428,True
"40-42 Great Northern Highway, MIDDLE SWAN , Western Australia",-31.8666033,116.0143495,True
"8 Clayton Street, MIDLAND , Western Australia",-31.8990741,116.01282699305324,True
"231 Morrison Road, MIDVALE , Western Australia",-31.8860881,116.028185,True
"162 Russell Street, MORLEY , Western Australia",-31.8965761,115.8947289,True
"235 Welshpool Road, QUEENS PARK , Western Australia",-31.9975838,115.9506951,True
"129 Dixon Road, EAST ROCKINGHAM , Western Australia",-32.2769592,115.7827979,True
"481 Balfour Street, SOUTHERN RIVER , Western Australia",-32.1064402,115.94166616064638,True
"660 Beeliar Drive, SUCCESS , Western Australia",-32.1277993,115.8593059,True
"125 Murdoch Road, THORNLIE , Western Australia",-32.0615519,115.9437112,True
"79 Gnangara Road, WANGARA , Western Australia",-31.8023005,115.8341286,True
"929-931 Wanneroo Road, WANNEROO , Western Australia",-31.6916696,115.7599059,True
"990 Wanneroo Road, WANNEROO , Western Australia",-31.6101151,115.7126511,True
"332 Hale Road, WATTLE GROVE , Western Australia",-31.9980281,115.990561,True
"86 South Coast Highway, ORANA , Western Australia",-35.0022374,117.8645789,True
"3 Armadale Road, JANDAKOT , Western Australia",-32.1235994,115.8584087,True
"Lot 602 Forrest Highway, WEST PINJARRA , Western Australia",,,False
"Lot 601 Forrest Highway, WEST PINJARRA , Western Australia",-32.6062722,115.8142031,True
"39 Bussell Highway, GELORUP , Western Australia",-33.4027143,115.6366084,True
"Lot 50 Mandurah Road, MEADOW SPRINGS , Western Australia",-32.4822941,115.7554751,True
"40 North West Coastal Highway, WONTHELLA , Western Australia",-28.7705916,114.6246049,True
"287 Place Road, WEBBERTON , Western Australia",-28.7593004,114.6248808,True
"3249 Albany Highway, ARMADALE , Western Australia",-32.1490124,116.0211531,True
"80 Old Coast Road, AUSTRALIND , Western Australia",-33.2925912,115.7093768,False
"59 Great Eastern Highway, BELLEVUE , Western Australia",-31.8929217,116.0197492,True
"69 Pinetree Gully Road, WILLETTON , Western Australia",-32.0609159,115.8772818,True
"1443 Albany Highway, CANNINGTON , Western Australia",-32.0113539,115.9263031,True
"121 Collins Road, WILLETTON , Western Australia",-32.055384,115.8966553,True
"226 Morrison Road, MIDVALE , Western Australia",-31.8860881,116.028185,True
"40 Benara Road, NORANDA , Western Australia",-31.8754474,115.9096224,True
"941 Whitfords Ave, WOODVALE , Western Australia",-31.7979744,115.7870498,True
"35 Albany Highway, ALBANY , Western Australia",-34.9638169,117.8193953,True
"848 Canning Highway, APPLECROSS , Western Australia",-32.01489425,115.8432482604572,True
"530 Canning Highway, ATTADALE , Western Australia",-32.0313245,115.8133476,True
"100-102 Blackwood Ave, AUGUSTA , Western Australia",-34.3088422,115.158152,True
"53 Erindale Road, BALCATTA , Western Australia",-31.8600744,115.8106497,True
"Lot 191 Paparone Road, BALDIVIS , Western Australia",-32.3138711,115.8283831,True
"Lot 192 Leary Road, BALDIVIS , Western Australia",,,False
"2/909 Mandurah Road, BALDIVIS , Western Australia",-32.3825703,115.7818473,True
"2 Illawarra Cres North, BALLAJURA , Western Australia",-31.8278673,115.8822011,True
"1084 Great Northern Highway, BASKERVILLE , Western Australia",-31.7953351,116.0214061,True
"701 Beeliar Drive, COCKBURN CENTRAL , Western Australia",-32.1285595,115.8538936,True
"261 Eddystone Ave, BELDON , Western Australia",-31.777062,115.7663968,False
"2 Wellard Street, BIBRA LAKE , Western Australia",-32.1038844,115.8038995,True
"2 Coghlan Street, DJUGUN , Western Australia",-17.9534707,122.2373333,True
"83 Wheatley Drive, BULL CREEK , Western Australia",-32.0568638,115.8662623,False
"26 Albert Street, BUSSELTON , Western Australia",-33.6517797,115.3465158,True
"13 Bannister Road, CANNING VALE , Western Australia",-32.0720281,115.8928106,True
"1134 North West Coastal Highway, BROWN RANGE , Western Australia",-24.8623956,113.71239813902504,True
"40 Bennett Street, CAVERSHAM , Western Australia",-31.8718017,115.96017850049913,True
"28K Caloundra Road, CLARKSON , Western Australia",-31.6924959,115.722252,True
"138 Loch Street, DERBY , Western Australia",-17.3092653,123.6465936,True
"210 Great Eastern Highway, ASCOT , Western Australia",-31.9329157,115.9400686,True
"2 Prendiville Ave, OCEAN REEF , Western Australia",-31.7528185,115.7388827,True
"44 Archer Street, CARLISLE , Western Australia",-31.9759103,115.9139223,True
"2 Sunlander Drive, CURRAMBINE , Western Australia",-31.7249481,115.747384,True
"68-70 Brown Street, EAST PERTH , Western Australia",-31.9509152,115.8745688,True
"190 Karrinyup Road, KARRINYUP , Western Australia",-31.8776806,115.7758987,True
"4 Chisham Ave, KWINANA TOWN CENTRE , Western Australia",-32.244183,115.8123954,True
"218 Main Street, OSBORNE PARK , Western Australia",-31.9060291,115.8282144,True
"2 Ridgewood Bvd, RIDGEWOOD , Western Australia",-31.6642939,115.7249473,True
"246 Leach Highway, MYAREE , Western Australia",-32.0460896,115.8172354,True
"349 Charles Street, NORTH PERTH , Western Australia",-31.9234194,115.8510357,True
"2 Warburton Ave, PADBURY , Western Australia",-31.811086,115.7655285,False
"214 Warnbro Sound Ave, WARNBRO , Western Australia",-32.358132,115.7620008,True
"222 Rockingham Road, SPEARWOOD , Western Australia",-32.1010754,115.7827567,True
"339 High Road, RIVERTON , Western Australia",-32.0386443,115.8962915,True
"2 Chalgrove Ave, ROCKINGHAM , Western Australia",-32.2844809,115.7466503,True
"9 Mends Street, SOUTH PERTH , Western Australia",-31.9726824,115.8523863,True
"810 Beeliar Drive, SUCCESS , Western Australia",-32.1277993,115.8593059,True
"261 Walter Road West, MORLEY , Western Australia",-31.8961967,115.8944065,True
"240 Cambridge Street, WEMBLEY , Western Australia",-31.9407457,115.8114475,True
"11 Scarborough Beach Road, SCARBOROUGH , Western Australia",-31.8939583,115.7738031,True
"1 Roy Earl Drive, COWARAMUP , Western Australia",-33.8558393,115.1028205,True
"7 Welshpool Road East, LESMURDIE , Western Australia",-32.0155012,116.0470014,True
"Lot 6 Great Eastern Highway, CUNDERDIN , Western Australia",-31.6430769,117.3345629,True
"44A South Coast Highway, DENMARK , Western Australia",-34.96741,117.435625,True
"19 Rodgers Street, DERBY , Western Australia",-17.3288677,123.6521926,True
"4 Wanneroo Road, YOKINE , Western Australia",-31.9023772,115.8429905,True
"15 South Western Highway, DONNYBROOK , Western Australia",-33.5795825,115.8404084,True
"238 Naturaliste Tce, DUNSBOROUGH , Western Australia",-33.6151791,115.1059873,True
"137 Dixon Road, EAST ROCKINGHAM , Western Australia",-32.2764283,115.7875836,True
"2 The Gateway, EDGEWATER , Western Australia",-31.763749,115.7738404,True
"484 Walter Road East, EMBLETON , Western Australia",-31.8950334,115.9234673,True
"2 Alex Wood Drive, FORRESTDALE , Western Australia",-32.141080650000006,115.96600609594029,True
"155 Hale Road, FORRESTFIELD , Western Australia",-31.9904816,115.9995538,False
"Lot 1662 Shenton Street, WEST END , Western Australia",,,False
"438 Hannan Street, KALGOORLIE , Western Australia",-30.752875,121.466493,True
"19 Coolibah Drive, GREENWOOD , Western Australia",-31.8338467,115.8027998,True
"2 Guava Way, HALLS HEAD , Western Australia",-32.5488967,115.7004211,True
"1520 Gnangara Road, HENLEY BROOK , Western Australia",-31.7956781,115.9938975,True
"68 Warton Road, HUNTINGDALE , Western Australia",-32.0735922,115.9633666,True
"2 Abello Bvd, JINDALEE , Western Australia",-31.636748,115.6898875,True
"110 Bashford Street, JURIEN BAY , Western Australia",-30.30362565,115.04053282537336,True
"248 Celebration Road, YILKARI , Western Australia",,,False
"Lot 35 Goldfields Highway, KAMBALDA EAST , Western Australia",-31.1967682,121.6505074,True
"88 Gilbertson Road, KARDINYA , Western Australia",-32.0647812,115.8194143,True
"1033 Mardie Road, KARRATHA INDUSTRIAL ESTATE , Western Australia",-20.7769247,116.8612558,True
"30 Balmoral Road, KARRATHA , Western Australia",-20.7357365,116.8424468,True
"Lot 9 Resource Road, GAP RIDGE , Western Australia",-20.7403093,116.7671317,True
"2907 Albany Highway, KELMSCOTT , Western Australia",-32.1033164,116.0122621,True
"48 Courtney Pl, WATTLE GROVE , Western Australia",-32.0074443,115.9833414,True
"549 Abernethy Road, KEWDALE , Western Australia",-31.9646949,115.9390044,True
"28 Koondoola Ave, KOONDOOLA , Western Australia",-31.8412849,115.8628189,False
"Cnr Stockman Road & Bull Run Road, KUNUNURRA , Western Australia",,,False
"230-234 Nicholson Road, LANGFORD , Western Australia",-32.0539872,115.9316338,True
"269 Kalamunda Road, MAIDA VALE , Western Australia",-31.9450842,116.0195402,True
"304 Pinjarra Road, MANDURAH , Western Australia",-32.5351937,115.7166428,True
"96 Giblett Street, MANJIMUP , Western Australia",-34.2417467,116.1461786,True
"73 Manning Road, MANNING , Western Australia",-32.012216,115.8764208,True
"360 Anchorage Drive North, MINDARIE , Western Australia",-31.677264,115.7094637,True
"153 Gardiner Street, MOORA , Western Australia",-30.6367173,116.0087593,True
"335 Walter Road West, MORLEY , Western Australia",-31.8961967,115.8944065,True
"25 Mitchell Road, MOUNT BARKER , Western Australia",-34.5990594,117.517146,False
"101 Dampier Av, MULLALOO , Western Australia",-31.7722736,115.7420028,False
"16 Tubada Street, MUNGLINUP , Western Australia",-33.7049514,120.8611479,True
"37 Federal Street, NARROGIN , Western Australia",-32.9410521,117.1785538,True
"1351 Rockingham Road, NAVAL BASE , Western Australia",-32.1939102,115.782755,True
"101 Great Northern Highway, NEWMAN , Western Australia",-23.3703587,119.7725215,True
"386 Scarborough Beach Road, INNALOO , Western Australia",-31.9006791,115.7934324,True
"Lot 2 Eyre Highway, NORSEMAN , Western Australia",-32.1770535,121.7905254,True
"85 Forrest Ave, SOUTH BUNBURY , Western Australia",-33.3363014,115.6404594,True
"84 Brockman Street, PEMBERTON , Western Australia",-34.4461606,116.0323328,True
"Lot 202 Wimbridge Road, PICTON , Western Australia",-33.3464223,115.6966007,True
"24 Wetherly Drive, PICTON , Western Australia",-33.3452063,115.7081901,True
"90 Anderson Street, PORT HEDLAND , Western Australia",-20.3130781,118.5767464,True
"46 Bakewell Drive, PORT KENNEDY , Western Australia",-32.3631297,115.7592823,True
"47 Morgans Street, RAVENSTHORPE , Western Australia",-33.5824254,120.032641,True
"419 Great Eastern Highway, REDCLIFFE , Western Australia",-31.9223051,115.9559966,True
"43 Hampton Street, BRIDGETOWN , Western Australia",-33.9667861,116.1344196,True
"30373 Brand Highway, DONGARA , Western Australia",-29.2525459,114.9603806,True
"18a South Western Highway, HARVEY , Western Australia",-32.9482273,115.9099299,True
"129 Stirling Highway, NEDLANDS , Western Australia",-31.9797524,115.79826042416286,True
"10895 Great Eastern Highway, SAWYERS VALLEY , Western Australia",-31.8851657,116.2612106,True
"188 Spencer Street, SOUTH BUNBURY , Western Australia",-33.3451822,115.641149,True
"2 Throssell Road, SOUTH HEDLAND , Western Australia",-20.409017,118.6011956,False
"30 Angove Road, SPENCER PARK , Western Australia",-35.0070223,117.8922058,True
"13724 Great Eastern Highway, THE LAKES , Western Australia",-31.8793921,116.3171535,True
"430 Safety Bay Road, SAFETY BAY , Western Australia",-32.3038391,115.7114156,True
"Cnr Pinga Street & Anthill Street, WEDGEFIELD , Western Australia",,,False
"1 Ballantyne Road, KEWDALE , Western Australia",-31.9829686,115.9396976,True
"11 Wilurarra Road, WEST KALGOORLIE , Western Australia",-30.7846126,121.4332822,True
"85 Queen Victoria Street, FREMANTLE , Western Australia",-32.0465792,115.7520221,True
"16 Albany Highway, WILLIAMS , Western Australia",-33.0389233,116.8859415,True
"190 North West Coastal Highway, WEBBERTON , Western Australia",-28.7589299,114.6252057,True
"380 Great Eastern Highway, WOODBRIDGE , Western Australia",-31.8922428,115.9873385,True
"80-82 Great Northern Highway, WUBIN , Western Australia",-30.0689686,116.6803837,True
"46458 South Coast Highway, KING RIVER , Western Australia",-34.9291721,117.9156858,True
"12 Bridgetown Road, BALINGUP , Western Australia",,,False
"64 Blackwood Ave, AUGUSTA , Western Australia",-34.3088422,115.158152,True
"177-179 Great Eastern Highway, BELLEVUE , Western Australia",-31.8929217,116.0197492,True
"25 Preston Street, COMO , Western Australia",-31.9937776,115.8622883,True
"21 Edgewater Drive, EDGEWATER , Western Australia",-31.7718296,115.7897236,True
"12440 Bussell Highway, KARRIDALE , Western Australia",-34.20211975,115.09886034503776,True
"3 Carson Road, MALAGA , Western Australia",-31.8554242,115.8776744,True
"211 Bussell Highway, MARGARET RIVER , Western Australia",-33.9597168,115.0765952,True
"Cnr Rockingham Road & Lee Road, NAVAL BASE , Western Australia",,,False
"177 O'Connor Road, STRATTON , Western Australia",-31.8717985,116.0386993,False
"150 Wanneroo Road, TUART HILL , Western Australia",-31.8934715,115.8393995,True
"21 Coronation Drive, BINNINGUP , Western Australia",-33.1499459,115.6894655,False
"8B South Western Highway, BOYANUP , Western Australia",-33.4736948,115.7271388,True
"3 Bandicoot Drive, KUNUNURRA , Western Australia",-15.7818446,128.736145,True
"634 Menang Drive, WILLYUNG , Western Australia",-34.9605891,117.8802851,False
"5 Cocos Drive, BIBRA LAKE , Western Australia",-32.1095391,115.8084986,False
"1 Spencer Street, BRIDGETOWN , Western Australia",-33.9612827,116.1376595,True
"124 Throssell Street, COLLIE , Western Australia",-33.3615962,116.1626679,True
"4267 South Western Highway (Cnr Del Park Road), NORTH DANDALUP , Western Australia",,,False
"2 Cunningham Road (Cnr Great Eastern Highway), WEST KALGOORLIE , Western Australia",,,False
"1540 Anderson Road, KARRATHA INDUSTRIAL ESTATE , Western Australia",-20.7757936,116.8695368,False
"Cnr Mandurah Road & Wellard Road, KWINANA BEACH , Western Australia",,,False
"76 Malaga Drive (Cnr Truganina Road), MALAGA , Western Australia",,,False
"54 Wetherell Street, MANJIMUP , Western Australia",-34.2566731,116.1465413,False
"12 Clayton Road, NARROGIN , Western Australia",-32.9200856,117.0162767,False
"131 Welsh Drive (Cnr Pardoo Drive), NEWMAN , Western Australia",,,False
"204 North Road, YAKAMIA , Western Australia",-35.0053366,117.8729389,True
"1 Wimbridge Road, PICTON , Western Australia",-33.3464223,115.6966007,True
"1 Princep Street, NORSEMAN , Western Australia",,,False
"Cnr North Mole Drive & Rous Head Road, NORTH FREMANTLE , Western Australia",,,False
"159 Altone Road (Cnr Hull Way), BEECHBORO , Western Australia",,,False
"918 Canning Highway (Cnr Kintail Road), APPLECROSS , Western Australia",,,False
"50 Mavis Road, BILINGURR , Western Australia",-17.9268283,122.2401735,True
"1 Forrest Ave, BUNBURY , Western Australia",-33.3404349,115.6461278,True
"115 Strelly Street, BUSSELTON , Western Australia",-33.6631886,115.3489759,True
"11 Headingly Cr (Cnr Connolly Drive), BUTLER , Western Australia",,,False
"Lot 22 South Western Highway (Cnr Nettleton Road), BYFORD , Western Australia",,,False
"1346 Albany Highway, CANNINGTON , Western Australia",-32.0113539,115.9263031,True
"510 Beach Road (Cnr Duffy Road), CARINE , Western Australia",,,False
"595 Robinson Street, KINGSFORD , Western Australia",,,False
"7 Ocean Keys Bvd (Cnr Marmion Ave), CLARKSON , Western Australia",,,False
"110-114 Bayley Street, COOLGARDIE , Western Australia",-30.9546617,121.163342,True
"191 Bailey Bvd (Cnr Dawesville Bypa), DAWESVILLE , Western Australia",,,False
"365 Scarborough Beach Road, DOUBLEVIEW , Western Australia",-31.8944946,115.7808942,True
"157 Lord Street, PERTH , Western Australia",-31.9512821,115.8682494,True
"1 Pratt Road, EATON , Western Australia",-33.3133142,115.706587,False
"112 Oakleigh Drive (Cnr Old Coast Road), ERSKINE , Western Australia",,,False
"59 Dempster Street, ESPERANCE , Western Australia",-33.8666922,121.8901477,False
"77 Maidstone Cr, EXMOUTH , Western Australia",-21.9323954,114.127221,False
"63 Alex Wood Drive (Cnr Armadale Road), FORRESTDALE , Western Australia",,,False
"2 Jon Sanders Drive (Cnr Harborne Street), GLENDALOUGH , Western Australia",,,False
"158 Corfield Street, GOSNELLS , Western Australia",-32.0742735,115.9809239,True
"35 Minilya Pkwy (Cnr Lakes Road), GREENFIELDS , Western Australia",,,False
"967 Abernethy Road (Cnr Grogan Road), HIGH WYCOMBE , Western Australia",,,False
"342 Beaufort Street (Cnr Bulwer Street), PERTH , Western Australia",,,False
"Lakeside Joondalup Shopping Centre, JOONDALUP , Western Australia",-31.7432271,115.7675395,True
"146 Boulder Road (Cnr Connolly Street), SOUTH KALGOORLIE , Western Australia",,,False
"Lot 3861 Bathgate Road, NICKOL , Western Australia",,,False
"2877 Albany Highway, KELMSCOTT , Western Australia",-32.1033164,116.0122621,True
"2 Fenton Street (Cnr Kewdale Road), KEWDALE , Western Australia",,,False
"86 Kingsley Drive, KINGSLEY , Western Australia",-31.8038516,115.7871873,True
"319 Vincent Street, LEEDERVILLE , Western Australia",-31.93667705,115.8400891422811,True
"18 Orchard Road (Cnr Kelvin Road), MADDINGTON , Western Australia",,,False
"375 Great Eastern Highway, MIDVALE , Western Australia",-31.8939611,116.0262511,True
"296 Benara Road (Cnr Beechboro Road North), MORLEY , Western Australia",,,False
"676 Stirling Highway, MOSMAN PARK , Western Australia",-32.011425,115.7555419,True
"5895 Great Eastern Highway, MUNDARING , Western Australia",-31.8851657,116.2612106,True
"10 Robson Way, MURDOCH , Western Australia",-32.0630668,115.8361973,True
"1 Broadway (Cnr Stirling Highway), NEDLANDS , Western Australia",,,False
"Lot 1328 Newman Drive, NEWMAN , Western Australia",-23.3572016,119.7369398,False
"2624 Wanneroo Road, NOWERGUP , Western Australia",-31.6319269,115.7215378,True
"391 Wanneroo Road, BALCATTA , Western Australia",-31.8668204,115.8289525,True
"309 Stock Road, O'CONNOR , Western Australia",-32.0637616,115.793866,True
"270 High Road, RIVERTON , Western Australia",-32.0386443,115.8962915,True
"111 Great Eastern Highway, RIVERVALE , Western Australia",-31.9525162,115.9151476,True
"29 Dixon Road, ROCKINGHAM , Western Australia",-32.2771046,115.7678191,True
"74 Scarborough Beach Road, SCARBOROUGH , Western Australia",-31.8939583,115.7738031,True
"420 Secret Harbour Bvd, SECRET HARBOUR , Western Australia",-32.408748,115.7595274,True
"67 Hamilton Road, SOUTH HEDLAND , Western Australia",-20.3915255,118.5893385,True
"194 Rokeby Road, SUBIACO , Western Australia",-31.9507285,115.82423620803402,True
"316 Spencer Road, THORNLIE , Western Australia",-32.0534747,115.9592706,True
"219 Yale Road, THORNLIE , Western Australia",-32.0515576,115.9516471,True
"2 Bristol Street (Cnr Warnbro Sound Ave), WARNBRO , Western Australia",,,False
"169 High Road, WILLETTON , Western Australia",-32.0387506,115.8963647,True
"436 Wanneroo Road, WESTMINSTER , Western Australia",-31.866972,115.8292092,True
"60 Bannister Road, CANNING VALE , Western Australia",-32.063284,115.92636960123896,True
"91-93 Manning Road (Cnr Wyong Road), BENTLEY , Western Australia",,,False
"382 Grand Prom, DIANELLA , Western Australia",-31.8955811,115.8703755,True
"2100 Albany Highway (Cnr Mills Street), GOSNELLS , Western Australia",,,False
"581 Hannan Street (Cnr Ochiltree Street), SOMERVILLE , Western Australia",,,False
"110 Ranford Road, CANNING VALE , Western Australia",-32.0930428,115.9259592,True
"2 Baroy Street (Cnr Old Coast Road), FALCON , Western Australia",,,False
"810 Beaufort Street, MOUNT LAWLEY , Western Australia",-31.92519255,115.881731,True
"537 Lake Road, SEVILLE GROVE , Western Australia",-32.1233334,115.9880786,True
"2 Omeo Street, SOUTH LAKE , Western Australia",-32.1084228,115.828667,True
"309 Morrison Road, SWAN VIEW , Western Australia",-31.8854853,116.0424504,True
"79 Buckingham Drive (Cnr Hartman Drive), WANGARA , Western Australia",,,False
"6639 West Swan Road, WEST SWAN , Western Australia",-31.8637344,115.9866469,True
"271 York Street, ALBANY , Western Australia",-35.0236144,117.8834601,True
"868 Pinjarra Road (Cnr Tonkin Drive), FURNISSDALE , Western Australia",,,False
"204 Great Eastern Highway, ASCOT , Western Australia",-31.9329157,115.9400686,True
"2 Hollosy Way (Cnr Pinjar Road), ASHBY , Western Australia",,,False
"614 Baldivis Road (Cnr Safety Bay Road), BALDIVIS , Western Australia",,,False
"303 Great Eastern Highway, BELMONT , Western Australia",-31.9489083,115.9186142,True
"176 Canning Highway, EAST FREMANTLE , Western Australia",-32.0410559,115.7624646,True
"490 Karrinyup Road, GWELUP , Western Australia",-31.8825087,115.8001613,True
"1 Capital Road (Cnr Alexander Drive), MALAGA , Western Australia",,,False
"585 Canning Highway (Cnr North Lake Road), ALFRED COVE , Western Australia",,,False
"240 Toodyay Road (Cnr Lewis Jones Crss), STRATTON , Western Australia",,,False
"56 Albany Highway, WILLIAMS , Western Australia",-33.0389233,116.8859415,True
"1 Morwell Street, YANCHEP , Western Australia",-31.5510204,115.6440644,True
"289 Beeliar Drive, YANGEBUP , Western Australia",-32.1282855,115.8118548,True
"12-14 Cajarina Road (Cnr Pardoo Street), WEDGEFIELD , Western Australia",,,False
"119 Kurnall Road, WELSHPOOL , Western Australia",-31.9953692,115.9551381,True
"259 Bussell Highway, WEST BUSSELTON , Western Australia",-33.6559696,115.3203259,True
"11 Shorehaven Bvd, ALKIMOS , Western Australia",-31.6011275,115.677602,True
"Cnr Grand Ent & The Promenade, AUSTRALIND , Western Australia",,,False
"317 Millhouse Road, AVELEY , Western Australia",-31.774496,115.9947283,False
"5 Hamelin Drive, BALLAJURA , Western Australia",-31.8475193,115.9149094,True
"162 Chester Pass Road, LANGE , Western Australia",-34.9910495,117.8748242,True
"Lot 68 Pennant Road, EAST BUNBURY , Western Australia",-33.3368879,115.6576472,True
"36 Duchess Street, BUSSELTON , Western Australia",-33.6486134,115.3454967,True
"15 Sarah Cl, CANNING VALE , Western Australia",-32.0733383,115.9256016,True
"25 Cecil Ave, CANNINGTON , Western Australia",-32.0166767,115.9381628,True
"90 Robinson Street, CARNARVON , Western Australia",-24.880325,113.660498,True
"1244 Marmion Ave, CURRAMBINE , Western Australia",-31.7404588,115.739627,True
"372 Grand Prom, DIANELLA , Western Australia",-31.89656205,115.87160093917628,True
"106 Frederick Street, DJUGUN , Western Australia",-17.9515577,122.2285872,True
"2 Recreation Drive, EATON , Western Australia",-33.3189212,115.7175548,True
"11 Main Street, ELLENBROOK , Western Australia",-31.7818962,115.9715312,False
"651 Old Coast Road, FALCON , Western Australia",-32.5862908,115.6580664,True
"5 Howtree Pl, FLOREAT , Western Australia",-31.9372711,115.7929688,True
"78C Hale Road, FORRESTFIELD , Western Australia",-31.9904816,115.9995538,False
"59 Cathedral Ave, GERALDTON , Western Australia",-28.7758017,114.6111008,True
"37 Canham Way, GREENWOOD , Western Australia",-31.82173015,115.82043008021796,True
"189 Winton Road, JOONDALUP , Western Australia",-31.7442742,115.7627182,True
"104 Brookman Street, KALGOORLIE , Western Australia",-30.7436602,121.47451,True
"Lot 1437 Warambie Road, KARRATHA , Western Australia",,,False
"6 Chisham Ave, KWINANA TOWN CENTRE , Western Australia",-32.244183,115.8123954,True
"77 Attfield Street, MADDINGTON , Western Australia",-32.0502208,115.9765174,True
"207 Burslem Drive, MADDINGTON , Western Australia",-32.0491828,115.977118,True
"168 Wanneroo Road (opp Giralt Road), MADELEY , Western Australia",,,False
"330 Pinjarra Road, MANDURAH , Western Australia",-32.5362034,115.74335052828746,True
"10-12 Magenta Tce, MANDURAH , Western Australia",-32.5096085,115.7401445,True
"89 Mottram Street, MANJIMUP , Western Australia",-34.2488897,116.1439491,True
"53 Yirrigan Drive, MIRRABOOKA , Western Australia",-31.8741582,115.8614389,True
"60 Russell Street, MORLEY , Western Australia",-31.8965761,115.8947289,True
"86 Wellington Street, NORTHAM , Western Australia",-31.6497852,116.6752783,True
"401 Scarborough Beach Road, OSBORNE PARK , Western Australia",-31.9036488,115.8005736,True
"150 Anderson Street, PORT HEDLAND , Western Australia",-20.3130781,118.5767464,True
"12 Saltaire Way, PORT KENNEDY , Western Australia",-32.3722098,115.7555241,True
"219 Hampton Road, SOUTH FREMANTLE , Western Australia",-32.0677524,115.7575207,True
"752 North Lake Road, SOUTH LAKE , Western Australia",-32.1126549,115.8331338,True
"466 Warton Road, SOUTHERN RIVER , Western Australia",-32.0902892,115.942496,True
"202 Warnbro Sound Ave, WARNBRO , Western Australia",-32.358132,115.7620008,True
"470 Whitfords Ave, HILLARYS , Western Australia",-31.79742605,115.74564767099083,False
"20 Windsor Road, WELLSTEAD , Western Australia",-34.4906445,118.6095626,True
"6672 Bussell Highway, CARBUNUP RIVER , Western Australia",,,False
"1014 North West Coastal Highway, BROWN RANGE , Western Australia",-24.8628973,113.7019795,True
"57 Goldfields Road, CASTLETOWN , Western Australia",-33.8371734,121.9088519,False
"16 Flinders Cct, CHADWICK , Western Australia",-33.842757,121.8816054,True
"12 Bald Island Road, CHEYNES , Western Australia",-34.8839219,118.4062672,False
"570 Rosedale Road, CHIDLOW , Western Australia",-31.84169,116.2423742,False
"342 Albany Highway, ORANA , Western Australia",-34.9918934,117.8563862,True
"250 Albany Highway, CENTENNIAL PARK , Western Australia",-35.0177779,117.8790032,True
"269 South Western Highway, ARMADALE , Western Australia",-32.1565935,116.0179116,True
"1001 Joondalup Drive, BANKSIA GROVE , Western Australia",-31.7035455,115.8050308,True
"34 Jackson Street, BAYSWATER , Western Australia",-31.9062535,115.9271043,True
"8 Durnin Ave, BEELIAR , Western Australia",-32.1281298,115.7963185,True
"1128 Albany Highway, BENTLEY , Western Australia",-32.0072457,115.9236938,True
"1 Timberyard Way, BIBRA LAKE , Western Australia",-32.1167991,115.8071302,False
"394 Canning Highway, BICTON , Western Australia",-32.0340953,115.7927872,True
"35 Frank Street, BOULDER , Western Australia",-30.7662508,121.4853233,True
"71 Cranford Ave, BRENTWOOD , Western Australia",-32.0410616,115.8534724,True
"19 Napier Tce, BROOME , Western Australia",-17.9549697,122.2405115,True
"44 Benningfield Road, BULL CREEK , Western Australia",-32.0656348,115.8587781,True
"9805 Forrest Highway, GLEN IRIS , Western Australia",-33.3363101,115.6768497,True
"70 Forrest Ave, SOUTH BUNBURY , Western Australia",-33.3406813,115.6460272,True
"88 Causeway Road, BUSSELTON , Western Australia",-33.6616414,115.3568658,True
"61 Butler Bvd, BUTLER , Western Australia",-31.6373744,115.6989813,False
"280 Bannister Road, CANNING VALE , Western Australia",-32.0710784,115.8950161,True
"1 Johnson Road, BERTRAM , Western Australia",-32.2370768,115.8476453,True
"269 Stirling Highway, CLAREMONT , Western Australia",-31.982377,115.7847376,True
"36 Ocean Keys Bvd, CLARKSON , Western Australia",-31.6900111,115.717767,True
"223 Belmont Ave, CLOVERDALE , Western Australia",-31.9653072,115.9329183,True
"57 Johnston Street, COLLIE , Western Australia",-33.357514,116.1536764,True
"47 Church Road, DAMPIER , Western Australia",-20.6623976,116.710415,True
"67 Walter Road West, DIANELLA , Western Australia",-31.89956,115.8892678,True
"193 Warwick Road, DUNCRAIG , Western Australia",-31.8358682,115.7827833,True
"64 Dunn Bay Road, DUNSBOROUGH , Western Australia",-33.6157233,115.1070655,True
"57 Joondalup Drive, EDGEWATER , Western Australia",-31.7629911,115.7740543,True
"3 Goodwood Cres, ELLENBROOK , Western Australia",-31.7747928,115.9596135,True
"25 Andrew Street, ESPERANCE , Western Australia",-33.861317,121.8906874,False
"87 Great Northern Highway, FITZROY CROSSING , Western Australia",-18.2032038,125.5716135,False
"2 Strelitzia Ave, FORRESTFIELD , Western Australia",-31.9842814,116.0087412,False
"101 Hampton Road, FREMANTLE , Western Australia",-32.059132,115.7561012,True
"60 Marangaroo Drive, GIRRAWHEEN , Western Australia",-31.8344289,115.8388554,True
"14 Guava Way, HALLS HEAD , Western Australia",-32.5487322,115.7036291,True
"3 Guildford Road, MOUNT LAWLEY , Western Australia",-31.9382534,115.8769923,True
"6 Jersey Street, JOLIMONT , Western Australia",-31.9473616,115.8119809,True
"222 Manning Road, KARAWARA , Western Australia",-32.0121016,115.8764843,True
"6 Madigan Road, STOVE HILL , Western Australia",-20.7947972,116.776574,True
"13 Searipple Road, KARRATHA , Western Australia",-20.7278586,116.8486436,False
"518 Abernethy Road, KEWDALE , Western Australia",-31.9646949,115.9390044,True
"47 Renegade Way, KINGSLEY , Western Australia",-31.8197135,115.8029111,True
"17 Poinciana Street, KUNUNURRA , Western Australia",-15.7807528,128.73355,True
"4 Beach Street, KWINANA BEACH , Western Australia",-32.2433045,115.776389,True
"49 Banksiadale Gte, LAKELANDS , Western Australia",-32.4694529,115.765426,True
"70 Nicholson Road, LANGFORD , Western Australia",-32.0539872,115.9316338,True
"29/51 Farrington Street, LEEMING , Western Australia",,,False
"117 Burslem Drive, MADDINGTON , Western Australia",-32.0491828,115.977118,True
"492 Alexander Drive, MALAGA , Western Australia",-31.8532147,115.8775454,True
"Cnr Pinjarra Road & Watson Drive, BARRAGUP , Western Australia",,,False
"78 Bussell Highway, MARGARET RIVER , Western Australia",-33.9820034,115.08771,True
"Lot 821 Main Street, MEEKATHARRA , Western Australia",-26.5864472,118.4982578,True
"Lot 46 Great Northern Highway, MIDDLE SWAN , Western Australia",-31.8666033,116.0143495,True
"582 Stirling Highway, MOSMAN PARK , Western Australia",-32.011425,115.7555419,True
"253 Walcott Street, NORTH PERTH , Western Australia",-31.923344,115.8590976,True
"1 The Esplanade, MOUNT PLEASANT , Western Australia",-32.040763,115.8593796,True
"69 North Lake Road, MYAREE , Western Australia",-32.0461401,115.815813,True
"10 Beamish Ave, NORTHAM , Western Australia",-31.6578901,116.670268,True
"6 Marina Bvd, OCEAN REEF , Western Australia",-31.7675958,115.7502951,True
"11 Roberts Street West, OSBORNE PARK , Western Australia",-31.9077843,115.8189265,True
"80 Carrington Street, PALMYRA , Western Australia",-32.0481656,115.7794735,True
"480 William Street, PERTH , Western Australia",-31.9430023,115.8631379,True
"Lot 2065 Wilson Street, PORT HEDLAND , Western Australia",,,False
"205 West Coast Highway, SCARBOROUGH , Western Australia",-31.8901435,115.7575546,True
"492 Mandurah Road, SINGLETON , Western Australia",-32.4473666,115.7633097,True
"Lot 5553 Great Northern Highway, WEDGEFIELD , Western Australia",,,False
"3 Canning Highway, SOUTH PERTH , Western Australia",-31.9885559,115.8710401,True
"216 Lakey Street, SOUTHERN RIVER , Western Australia",-32.0905357,115.9471817,True
"2 Fortyn Ct, MAHOMETS FLATS , Western Australia",-28.7912318,114.6161075,True
"1333 Great Northern Highway, UPPER SWAN , Western Australia",-31.7571907,116.0370663,True
"2 Napoleon Prom, VASSE , Western Australia",-33.675003149999995,115.25125705028978,True
"66 Kent Street, EAST VICTORIA PARK , Western Australia",-31.9878426,115.8930714,True
"1-9 Gnangara Drive, WAIKIKI , Western Australia",-32.3155082,115.7531554,True
"1 Niche Pde, WANGARA , Western Australia",-31.7916712,115.8523617,True
"621 Wanneroo Road, WANNEROO , Western Australia",-31.6101151,115.7126511,True
"274 Erindale Road, WARWICK , Western Australia",-31.8339416,115.8140767,True
"337 Cambridge Street, WEMBLEY , Western Australia",-31.9407697,115.8231341,True
"30 Thomas Street, WEST PERTH , Western Australia",-31.9457159,115.83967439228756,True
"88 Champion Drive, SEVILLE GROVE , Western Australia",-32.1336563,116.005197,True
"239-247 High Road, WILLETTON , Western Australia",-32.0387669,115.9012309,True
"115 North West Coastal Highway, WONTHELLA , Western Australia",-28.7689747,114.6243222,True
"93 Capel Drive, CAPEL , Western Australia",-33.5520903,115.5537562,True
"14755 South Western Highway, PICTON EAST , Western Australia",-33.3372518,115.7409785,True
"142 Dunreath Drive, PERTH AIRPORT , Western Australia",-31.9403602,115.9518493,True
"60 Bussell Highway, COWARAMUP , Western Australia",-33.8661695,115.0949981,False
"24 Maitland Road, MULLEWA , Western Australia",-28.5394873,115.5126132,True
"4 Johnston Street, DALWALLINU , Western Australia",-30.2688261,116.6624524,True
"11 Charlotte Street, DARDANUP , Western Australia",-33.3999865,115.7542758,False
"1230 Rosa Brook Road, ROSA BROOK , Western Australia",,,False
"8222 South Western Highway, WAROONA , Western Australia",-32.9329746,115.9048126,True
"46 Clarendon Street, DERBY , Western Australia",-17.3048265,123.62938279411028,True
"39 Moreton Tce, DONGARA , Western Australia",-29.2514746,114.931089,True
"7 Clementson Street, BROOME , Western Australia",-17.9714517,122.2221567,True
"125 Robinson Street, MORGANTOWN , Western Australia",-24.8782995,113.6609117,True
"520 Robinson Street, KINGSFORD , Western Australia",,,False
"5 Margerison Street, MANJIMUP , Western Australia",-34.2591973,116.1462491,False
"21 Willis Street, NEWMAN , Western Australia",-23.3702035,119.734478,False
"38 Peel Tce, NORTHAM , Western Australia",-31.6504977,116.6827978,True
"254 South Western Highway, PICTON , Western Australia",-33.351176,115.6946165,True
"127 Giblett Street, MANJIMUP , Western Australia",-34.2417467,116.1461786,True
"48 McLarty Street, DWELLINGUP , Western Australia",-32.7136655,116.0652894,False
"111 Morgans Street, RAVENSTHORPE , Western Australia",-33.5824254,120.032641,True
"2 Brinsden Road, WEST KALGOORLIE , Western Australia",-30.7768981,121.4307203,True
"1309 Lower Denmark Road, ELLEKER , Western Australia",-35.0080812,117.7233094,False
"2 Huston Street, EXMOUTH , Western Australia",-21.9378463,114.1259475,False
"67 Lundy Ave, CUNDERDIN , Western Australia",-31.6498354,117.2376683,True
"54 Cumberland Road, FORRESTFIELD , Western Australia",-31.9938304,116.0117742,False
"53 Emanuel Way, FITZROY CROSSING , Western Australia",-18.1975427,125.5691474,True
"Lot 277 Great Northern Highway, FITZROY CROSSING , Western Australia",,,False
"18 Nockolds Street, WALPOLE , Western Australia",-34.9764696,116.7310162,True
"7 South Western Highway, DONNYBROOK , Western Australia",-33.5795825,115.8404084,True
"94 Ommaney Road, BRUNSWICK , Western Australia",-33.2540829,115.8387182,True
"328 Marine Tce, GEOGRAPHE , Western Australia",-33.638357,115.3737819,False
"12 Auger Way, MARGARET RIVER , Western Australia",-33.9655678,115.0717043,True
"84 Strelly Street (Cnr Fairlawn Road), BUSSELTON , Western Australia",,,False
"20 Great Eastern Highway, GLEN FORREST , Western Australia",-31.903042,116.1039143,True
"2 Bayview Drive, GRACETOWN , Western Australia",-33.8658486,114.9871306,False
"28 Blackwood Road, GREENBUSHES , Western Australia",-33.850445,116.0598878,False
"143 Throssell Street, COLLIE , Western Australia",-33.3615962,116.1626679,True
"65 Roberts Street, MOORA , Western Australia",-30.6269676,116.0038958,True
"40 Kent Street, ROCKINGHAM , Western Australia",-32.2647318,115.7460498,False
"81 King Road, EAST BUNBURY , Western Australia",-33.332456,115.6538997,False
"14270 South Western Highway, WATERLOO , Western Australia",-33.3238663,115.7702837,True
"63 Avon Tce, YORK , Western Australia",-31.8934123,116.7682663,True
"213 Harbour Road, CHADWICK , Western Australia",-33.8464121,121.8864281,False
"777 Great Northern Highway, HERNE HILL , Western Australia",-31.8407455,116.0156677,True
"154 Albany Highway, KOJONUP , Western Australia",-33.9430554,117.1899241,True
"1615 Canning Road, KARRAGULLEN , Western Australia",-32.0981314,116.1170796,True
"47 Albany Highway, KOJONUP , Western Australia",-33.9430554,117.1899241,True
"22 Bashford Street, JURIEN BAY , Western Australia",-30.3015395,115.0458764,True
"2263 Mandurah Road, KARNUP , Western Australia",-32.4058375,115.774048,True
"12425 Bussell Highway, KARRIDALE , Western Australia",-34.2006399,115.0997219,True
"7 Hutton Street, OSBORNE PARK , Western Australia",-31.9017533,115.820669,True
"63 William Street, BECKENHAM , Western Australia",-32.0141337,115.9646597,True
"103 Calista Ave, CALISTA , Western Australia",-32.2528023,115.8070906,True
"2341 Albany Highway, GOSNELLS , Western Australia",-32.0928915,116.0132116,True
"69-71 Wilson Street, KALGOORLIE , Western Australia",-30.7526432,121.4748179,True
"2 Cockatoo Street, NICKOL , Western Australia",-20.7464046,116.8077631,True
"2 Cowle Street, LANDSDALE , Western Australia",,,False
"557 Albany Highway, ALBANY , Western Australia",-34.9638169,117.8193953,True
"17 Brisbane Street (Cnr Pier Street), PERTH , Western Australia",,,False
"Cnr Pinjarra Road & Carey Street, PINJARRA , Western Australia",,,False
"10805 Brand Highway, CATABY , Western Australia",-30.7704043,115.5658738,True
"639 Frenchmans Bay Road, LITTLE GROVE , Western Australia",,,False
"259 Railway Ave, KELMSCOTT , Western Australia",-32.1118623,116.0126097,True
"512 Rudds Gully Road, NARNGULU , Western Australia",-28.8181769,114.6946666,False
"43738 South Coast Highway, MANYPEAKS , Western Australia",-34.838574,118.1723619,True
"119 Main Street, MEEKATHARRA , Western Australia",-26.5864472,118.4982578,True
"16 Main Street, MEEKATHARRA , Western Australia",-26.5864472,118.4982578,True
"1 Fortyn Ct, MAHOMETS FLATS , Western Australia",-28.7912952,114.6166799,True
"74 Bashford Street, JURIEN BAY , Western Australia",-30.3061814,115.0373403,True
"Cnr Great Eastern Highway & Yilgarn Ave, MALABAINE , Western Australia",,,False
"108 Great Northern Highway, WUBIN , Western Australia",-30.0689686,116.6803837,True
"753 Geraldton-Mt Magnet Road, MOONYOONOOKA , Western Australia",-28.7910196,114.6895115,True
"48 Lowood Road, MOUNT BARKER , Western Australia",-34.6278192,117.6623435,True
"20 Paterson Street, MUNDIJONG , Western Australia",-32.2874157,115.9891438,False
"22 Fairway Street, NARROGIN , Western Australia",-32.9410817,117.1797139,True
"Lot 315 Great Northern Highway, FITZROY CROSSING , Western Australia",-18.0914602,125.4031393,True
"49 Great Eastern Highway, BELLEVUE , Western Australia",-31.8929217,116.0197492,True
"7 Mead Street, KALAMUNDA , Western Australia",-31.97358325,116.05930732675,True
"1 Davison Street, MADDINGTON , Western Australia",-32.0453632,115.9886732,True
"6 Beacham Road, RAVENSWOOD , Western Australia",-32.609013,115.8397075,True
"443 Great Eastern Highway, REDCLIFFE , Western Australia",-31.9293567,115.9464861,True
"6 Windy Harbour Road, NORTHCLIFFE , Western Australia",-34.6488533,116.1189695,False
"17 Zamia Street, NORTHCLIFFE , Western Australia",-34.6330855,116.1195317,True
"4 Bayonet Head Road (Cnr Lower King Road), ALBANY , Western Australia",,,False
"31 Barlee Street, BUSSELTON , Western Australia",-33.6611603,115.347163,True
"10 Nockolds Street, WALPOLE , Western Australia",-34.9754012,116.7350616,True
"6947 South Western Highway, COOLUP , Western Australia",-32.7805231,115.8915701,True
"52 Mitchell Road, PRESTON BEACH , Western Australia",-32.882261,115.6578103,False
"200 Mirrabooka Ave, ALEXANDER HEIGHTS , Western Australia",-31.8297233,115.85404063179776,True
"10 Orchard Ave, ARMADALE , Western Australia",-32.1500693,116.0145823,True
"229 Balcatta Road, BALCATTA , Western Australia",-31.8565793,115.8021455,True
"67 Ridge Bvd, BALDIVIS , Western Australia",-32.3537278,115.8077808,False
"502 Guildford Road, BAYSWATER , Western Australia",-31.9319307,115.8896396,True
"681 Albany Highway, BEDFORDALE , Western Australia",-32.1499135,116.0271782,True
"16-20 Clayton Street, BELLEVUE , Western Australia",-31.9010064,116.02825403149367,True
"33 Belvidere Street, BELMONT , Western Australia",-31.9464975,115.9396016,False
"7080 Forrest Highway, BINNINGUP , Western Australia",-33.1486761,115.7200392,True
"1 Brittain Road, CAREY PARK , Western Australia",-33.3597468,115.6459554,True
"265 Great Eastern Highway, BURSWOOD , Western Australia",-31.966017,115.8906688,True
"99 Causeway Road, BUSSELTON , Western Australia",-33.6616414,115.3568658,True
"8 Kardan Bvd, BYFORD , Western Australia",-32.207361,115.9779297,True
"59 Hudson Street, GREYS PLAIN , Western Australia",-24.882079,113.6980493,False
"49 Norseman Road, CASTLETOWN , Western Australia",-33.8324951,121.896497,True
"393 Canning Highway, COMO , Western Australia",-31.9950241,115.865604,True
"8 Repton Street, DAYTON , Western Australia",-31.85108475,115.96860439207909,True
"61 Walter Road West, DIANELLA , Western Australia",-31.89956,115.8892678,True
"Lot 6 Beckwith Road, CHADWICK , Western Australia",-33.8427538,121.8839021,True
"1400 Great Eastern Highway, GLEN FORREST , Western Australia",-31.903042,116.1039143,True
"1182 Chapman Road, GLENFIELD , Western Australia",-28.6713726,114.6221592,True
"16 Johnson Street, GUILDFORD , Western Australia",-31.8993678,115.9687666,True
"1 Wishart Street, GWELUP , Western Australia",-31.8764983,115.7989375,True
"216 Rockingham Road, HAMILTON HILL , Western Australia",-32.0932687,115.7828414,True
"224 Clontarf Road, HAMILTON HILL , Western Australia",-32.0756929,115.7740317,False
"81 Uduc Road, HARVEY , Western Australia",-33.0806369,115.8970209,False
"81 Quill Way, HENDERSON , Western Australia",-32.1591285,115.7788308,False
"494 Kalamunda Road, HIGH WYCOMBE , Western Australia",-31.9313182,115.9986841,True
"49 Candlewood Bvd, JOONDALUP , Western Australia",-31.7294398,115.7645026,True
"26 Kalamunda Road, KALAMUNDA , Western Australia",-31.97544535,116.0519077606578,True
"9 Kayili Road, WEST KALGOORLIE , Western Australia",-30.7853293,121.4304203,True
"77 Egan Street, KALGOORLIE , Western Australia",-30.7491935,121.4727417,True
"164 Brookton Highway, KARRAGULLEN , Western Australia",-32.0978872,116.0956812,True
"157 Morley Drive, KIARA , Western Australia",-31.8875658,115.939837,True
"2257 Victoria Highway, KUNUNURRA , Western Australia",-15.7927948,128.7590829,True
"32 Bandicoot Drive, KUNUNURRA , Western Australia",-15.7818446,128.736145,True
"Cnr Mandurah Road & Beach Street, KWINANA BEACH , Western Australia",,,False
"220 Gnangara Road, LANDSDALE , Western Australia",-31.7949746,115.8596318,True
"194 Canning Road, LESMURDIE , Western Australia",-32.0005252,116.0676647,True
"2 Lynwood Ave, LYNWOOD , Western Australia",-32.0355067,115.9266233,False
"137 Kelvin Road, MADDINGTON , Western Australia",-32.0303425,116.0054293,True
"182 Wanneroo Road, MADELEY , Western Australia",-31.8188341,115.82117204994388,True
"1896 Beach Road, MALAGA , Western Australia",-31.8553279,115.8931648,False
"715 Pinjarra Road, BARRAGUP , Western Australia",,,False
"1182 South Western Highway, MANJIMUP , Western Australia",-34.2362667,116.149258,True
"25 Meadow Springs Drive, MEADOW SPRINGS , Western Australia",-32.4967021,115.7522329,True
"5/4 Hughie Edwards Drive, MERRIWA , Western Australia",-31.6579614,115.7091467,True
"232-234 Morrison Road, MIDVALE , Western Australia",-31.8860881,116.028185,True
"22 Anchorage Drive, MINDARIE , Western Australia",-31.6857753,115.7038879,False
"81 Guildford Road, MOUNT LAWLEY , Western Australia",-31.9371503,115.8798447,True
"317 Albany Highway, MOUNT MELVILLE , Western Australia",-35.0045789,117.8662171,True
"7060 Great Eastern Highway, MUNDARING , Western Australia",-31.9013825,116.0446237,True
"512 Rockingham Road, MUNSTER , Western Australia",-32.1458873,115.7898875,True
"170 Murdoch Drive, MURDOCH , Western Australia",-32.07917835,115.8430577056184,True
"6043 Forrest Highway, MYALUP , Western Australia",-33.1066685,115.7231647,True
"2056 Wanneroo Road, NEERABUP , Western Australia",-31.6705147,115.7410023,True
"311 Fitzgerald Street, WEST PERTH , Western Australia",-31.9429816,115.8542827,True
"5 Messmate Way, KUNUNURRA , Western Australia",-15.7782348,128.7398907,True
"8 Main Street, OSBORNE PARK , Western Australia",-31.913625,115.8284098,True
"60 Meares Ave, KWINANA TOWN CENTRE , Western Australia",-32.2471435,115.8167817,True
"204 Shiraz Bvd, PEARSALL , Western Australia",-31.7852909,115.8274221,True
"7 Maritana Street, PICCADILLY , Western Australia",-30.742965,121.4704477,True
"4 Remisko Drive, FORRESTDALE , Western Australia",-32.1422043,115.9743127,True
"770 Brookton Highway, ROLEYSTONE , Western Australia",-32.1157007,116.0832658,True
"96 Great Eastern Highway, SAWYERS VALLEY , Western Australia",-31.8851657,116.2612106,True
"1 Altitude Ave, PORT HEDLAND , Western Australia",-20.3847169,118.6105972,False
"1540 Bussell Highway, STRATHAM , Western Australia",-33.4703918,115.5940511,True
"15323 Great Eastern Highway, TAMMIN , Western Australia",-31.6203308,117.6278358,True
"156 Brand Highway, TARCOOLA BEACH , Western Australia",-28.8027948,114.6208981,True
"1383 Great Northern Highway, UPPER SWAN , Western Australia",-31.7571907,116.0370663,True
"162-170 Albany Highway, VICTORIA PARK , Western Australia",-31.9794928,115.899741,True
"1 Brady Street, WANGARA , Western Australia",-31.7856886,115.8195502,True
"951 Wanneroo Road, WANNEROO , Western Australia",-31.6101151,115.7126511,True
"649-651 Safety Bay Road, WARNBRO , Western Australia",-32.3261998,115.7512622,True
"604 Welshpool Road East, WATTLE GROVE , Western Australia",-32.0074062,115.9933812,True
"3 Manganese Street, WEDGEFIELD , Western Australia",-20.3760906,118.5934095,False
"23 Kewdale Road, WELSHPOOL , Western Australia",-31.9952085,115.9437887,True
"3381 Great Eastern Highway, WUNDOWIE , Western Australia",-31.806759,116.3619468,True
"1 Ikara Lane, YANCHEP , Western Australia",,,False
"398 Hector Street, YOKINE , Western Australia",-31.9042607,115.8528392,True
"40 Harbour Road, GREYS PLAIN , Western Australia",-24.8829903,113.695925,False
"10513 Brand Highway, CATABY , Western Australia",-30.7704043,115.5658738,True
"2 Clinch Road, DALWALLINU , Western Australia",-30.2741375,116.6634986,True
"256 Deepdale Road, MERU , Western Australia",-28.8008632,114.6913003,False
"120 Flores Road, WEBBERTON , Western Australia",-28.7536322,114.6295498,True
"Cnr John Willcock Link & Portway, WEST END , Western Australia",,,False
"57 Great Eastern Highway, MECKERING , Western Australia",-31.6461781,117.00152,True
"81 Oliver Street, MEEKATHARRA , Western Australia",-26.5940395,118.4994818,True
"Lot 3 Great Northern Highway, PORT HEDLAND , Western Australia",-20.3912312,118.663981,True
"620 Chapman Road, GLENFIELD , Western Australia",-28.7196691,114.6273591,True
"4641 Great Eastern Highway, BAKERS HILL , Western Australia",-31.7428018,116.4671075,True
"27 Company Road, SOUTH GREENOUGH , Western Australia",-28.9845726,114.7741799,True
"2 Falls Road, SERPENTINE , Western Australia",-32.3644188,115.9915173,True
"12 Longstaff Ave, ALKIMOS , Western Australia",-31.6275384,115.6915752,True
"2539 Great Northern Highway, BULLSBROOK , Western Australia",-31.6843534,116.0329888,True
"69 South Coast Highway, DENMARK , Western Australia",-34.96741,117.435625,True
"147 Harbour Road, CHADWICK , Western Australia",-33.8464121,121.8864281,False
"472 Great Eastern Highway, ASCOT , Western Australia",-31.9329157,115.9400686,True
"36 Welshpool Road, WELSHPOOL , Western Australia",-31.9936097,115.9192965,True
"102 Deepdale Road, MERU , Western Australia",-28.8008632,114.6913003,False
"2095 Toodyay Road, GIDGEGANNUP , Western Australia",-31.8203756,116.1279746,True
"1100 Abernethy Road, HIGH WYCOMBE , Western Australia",-31.9302542,115.9946382,True
"2 Jarrahdale Road, JARRAHDALE , Western Australia",-32.3345696,116.0569589,False
"629 Lower King Road, LOWER KING , Western Australia",-34.9537705,117.9357186,False
"31 Dreyer Street, MECKERING , Western Australia",-31.6311881,117.0069232,True
"44 Egerton Street, NARROGIN , Western Australia",-32.9334448,117.1780897,True
"6519 Albany Highway, NORTH BANNISTER , Western Australia",-32.5564626,116.4220687,True
"101 Guy Street, BROOME , Western Australia",-17.9655844,122.2367791,False
"Lot 1 Newman Drive, NEWMAN , Western Australia",-23.3572016,119.7369398,False
"280 Fourth Street, WONTHELLA , Western Australia",-28.7643376,114.6336715,False
"86 Avon Tce, YORK , Western Australia",-31.8934123,116.7682663,True
"Lot 24 Albany Highway, WILLIAMS , Western Australia",-33.0389233,116.8859415,True
"16 South Yunderup Road, SOUTH YUNDERUP , Western Australia",-32.5845472,115.7806522,False
"1287 Brookton Highway, KARRAGULLEN , Western Australia",-32.1148281,116.1456944,True
"4 Cassidy Street, KALGOORLIE , Western Australia",-30.7480996,121.4728509,True
"309 Albany Highway, MOUNT MELVILLE , Western Australia",-35.0056065,117.8668012337838,True
"178 South Western Highway, ARMADALE , Western Australia",-32.1565935,116.0179116,True
"335 Collier Road, BASSENDEAN , Western Australia",-31.9071577,115.9421304,True
"13 Whyalla Ct, BIBRA LAKE , Western Australia",-32.0951297,115.8026817,True
"26 Davis Street, BOULDER , Western Australia",-30.7783226,121.4689088,False
"49 Reid Road, CABLE BEACH , Western Australia",-17.9539539,122.2152599,True
"801-803 South Western Highway, BYFORD , Western Australia",-32.2308896,116.0061448,True
"45 South Coast Highway, DENMARK , Western Australia",-34.96741,117.435625,True
"916 Albany Highway, EAST VICTORIA PARK , Western Australia",-31.9814029,115.900951,True
"3 Locke Lane, ELLENBROOK , Western Australia",-31.7795423,115.968082,False
"9 Winterfold Road, HAMILTON HILL , Western Australia",-32.0747411,115.7914361,True
"4 Walter Padbury Bvd, PADBURY , Western Australia",-31.8162281,115.7748802,True
"150 Massingham Street, KELLERBERRIN , Western Australia",,,False
"410-412 Orrong Road, KEWDALE , Western Australia",-31.974345,115.9216609,True
"138 Albany Highway, KOJONUP , Western Australia",-33.9430554,117.1899241,True
"2 Feilman Drive, LEDA , Western Australia",-32.2596526,115.8055172,True
"779 Gnangara Road, LEXIA , Western Australia",-31.7956269,115.8876599,True
"1 Rose Street, MANJIMUP , Western Australia",-34.2466401,116.1419778,True
"31763 Albany Highway, MOUNT BARKER , Western Australia",-34.6033841,117.656785,True
"791 Beaufort Street, MOUNT LAWLEY , Western Australia",-31.92594775,115.88018933033578,True
"182 Leach Highway, MYAREE , Western Australia",-32.0460896,115.8172354,True
"2038 Wanneroo Road, NEERABUP , Western Australia",-31.6705147,115.7410023,True
"31 Fitzgerald Street, NORTHBRIDGE , Western Australia",-31.94555615,115.85234929511056,True
"479 Scarborough Beach Road, OSBORNE PARK , Western Australia",-31.9037634,115.8021549,True
"121 Quinns Road (Cnr Tapping Way), QUINNS ROCKS , Western Australia",,,False
"50 Rifle Range Road, RANGEWAY , Western Australia",-28.7840873,114.6293431,True
"11 Wygonda Road, ROLEYSTONE , Western Australia",-32.112534,116.0708569,False
"49 Berrigan Drive, SOUTH LAKE , Western Australia",-32.113366,115.8374714,True
"Lot 101 Terrier Pl, SOUTHERN RIVER , Western Australia",-32.1204069,115.9559477,True
"2 Servetus Street, SWANBOURNE , Western Australia",-31.97625,115.7670223,True
"28 Northerly Street, VASSE , Western Australia",-33.6759524,115.2505438,True
"126 Forrest Road, ARMADALE , Western Australia",-32.1519179,116.0100967,True
"268 Great Eastern Highway, ASCOT , Western Australia",-31.9365391,115.9334303,True
"309 Guildford Road, BASSENDEAN , Western Australia",-31.9007869,115.9594809,True
"168 Walter Road West, BEDFORD , Western Australia",,,False
"495 Beechboro Road N, BEECHBORO , Western Australia",-31.8649652,115.9247615,True
"169 Hampton Street, BRIDGETOWN , Western Australia",-33.9667861,116.1344196,True
"375 Bussell Highway, BROADWATER , Western Australia",-33.6605763,115.2699682,True
"42 Strickland Street, BUNBURY , Western Australia",-33.3338976,115.6474382,True
"868 South Western Highway, BYFORD , Western Australia",-32.2308896,116.0061448,True
"427 Charles Street, NORTH PERTH , Western Australia",-31.9234194,115.8510357,True
"1 Bayley Street, COOLGARDIE , Western Australia",-30.9546617,121.163342,True
"45 South Western Highway, DONNYBROOK , Western Australia",-33.5795825,115.8404084,True
"114 Rockingham Road, HAMILTON HILL , Western Australia",-32.0803198,115.7656405,True
"46 South Western Highway, HARVEY , Western Australia",-32.9482273,115.9099299,True
"4 Ocean Street, KWINANA BEACH , Western Australia",-32.247146,115.7734156,True
"2 Rafferty Road, MANDURAH , Western Australia",-32.5177855,115.7486044,True
"430 Morley Drive, MORLEY , Western Australia",-31.8888637,115.9285385,True
"9 McVicar Pl, MOUNT HELENA , Western Australia",-31.8780576,116.210358,False
"66 Sylvia Street, NOLLAMARA , Western Australia",-31.8806161,115.8396208,True
"58 George Street, PINJARRA , Western Australia",-32.6302653,115.8731058,True
"35 Blackburn Drive, PORT KENNEDY , Western Australia",-32.3700744,115.7589792,True
"367 Caves Road, KEALY , Western Australia",-33.6595394,115.2473249,True
"333 Rockingham Road, SPEARWOOD , Western Australia",-32.1010754,115.7827567,True
"123 Thomas Street, SUBIACO , Western Australia",-31.9522258,115.8310223,True
"2086 Toodyay Road, GIDGEGANNUP , Western Australia",-31.8203756,116.1279746,True
"157 Grand Ent, AUSTRALIND , Western Australia",-33.2843055,115.7474506,True
"1447 Great Northern Highway, UPPER SWAN , Western Australia",-31.7571907,116.0370663,True
"964 Wanneroo Road, WANNEROO , Western Australia",-31.6101151,115.7126511,True
"89 South Western Highway, WAROONA , Western Australia",-32.9329746,115.9048126,True
"124 Welshpool Road, WELSHPOOL , Western Australia",-31.9940855,115.9244402,True
"10428 Bussell Highway, WITCHCLIFFE , Western Australia",-34.0170405,115.0975746,True
"109 Barrington Street, YANGEBUP , Western Australia",-32.1166643,115.7950709,True
"44 Mandurah Road, KWINANA BEACH , Western Australia",-32.2384082,115.7811838,True
"2 Kalamunda Road, SOUTH GUILDFORD , Western Australia",-31.9154995,115.9731572,True
"1 Evans Road, WALKAWAY , Western Australia",-28.9399064,114.7916599,False
"32 South Western Highway, WAROONA , Western Australia",-32.9329746,115.9048126,True
"41 Angove Street, NORTH PERTH , Western Australia",-31.9275482,115.85272,True
"260 Middleton Road, MIRA MAR , Western Australia",-35.0198825,117.9027494,False
"225-227 Albany Highway, MOUNT MELVILLE , Western Australia",-35.0117495,117.8712412,True
"1 Darch Street, REGANS FORD , Western Australia",-30.9825946,115.702225,True
"21 Jose Street, MULLEWA , Western Australia",-28.5404385,115.5124085,True
"19 Station Street, YOUNGS SIDING , Western Australia",-35.0120145,117.5221196,False
"7 Honeybee Pde, BANKSIA GROVE , Western Australia",-31.7032728,115.79870750799984,True
"3 Marvel Ent, BRABHAM , Western Australia",-31.8325481,115.9675282,True
"81-93 West Street, BUSSELTON , Western Australia",-33.6545183,115.3416261,True
"2 Sepia Ct, ROCKINGHAM , Western Australia",-32.2921288,115.7435246,True
"377 Wanneroo Road, BALCATTA , Western Australia",-31.87312,115.8297914,True
"159 Altone Road, BEECHBORO , Western Australia",-31.8714685,115.9446339,True
"918 Canning Highway, APPLECROSS , Western Australia",-32.0152943,115.8435471,True
"2 Hollosy Way, ASHBY , Western Australia",-31.732841,115.8040819,False
"614 Baldivis Road, BALDIVIS , Western Australia",-32.2900497,115.8293104,True
"91-93 Manning Road, BENTLEY , Western Australia",-32.013336,115.9008593,True
"11 Headingly Cr, BUTLER , Western Australia",-31.654251,115.71250868457044,False
"Lot 22 South Western Highway, BYFORD , Western Australia",-32.2308896,116.0061448,True
"510 Beach Road, CARINE , Western Australia",-31.8456584,115.7773506,True
"7 Ocean Keys Bvd, CLARKSON , Western Australia",-31.6911894,115.7332619,True
"191 Bailey Bvd, DAWESVILLE , Western Australia",-32.631052,115.6320169,True
"112 Oakleigh Drive, ERSKINE , Western Australia",-32.560414,115.6905318,True
"2 Baroy Street, FALCON , Western Australia",-32.5816961,115.6612889,True
"63 Alex Wood Drive, FORRESTDALE , Western Australia",-32.141080650000006,115.96600609594029,True
"2 Jon Sanders Drive, GLENDALOUGH , Western Australia",-31.9227139,115.8176753,True
"2100 Albany Highway, GOSNELLS , Western Australia",-32.0722439,116.0025103,True
"35 Minilya Pkwy, GREENFIELDS , Western Australia",-32.5298916,115.7640123,False
"967 Abernethy Road, HIGH WYCOMBE , Western Australia",-31.9302542,115.9946382,True
"420 Joondalup Drive, JOONDALUP , Western Australia",-31.7442395,115.7665936,True
"146 Boulder Road, SOUTH KALGOORLIE , Western Australia",-30.7524493,121.4804252,True
"581 Hannan Street, SOMERVILLE , Western Australia",-30.7625701,121.4561379,True
"2 Fenton Street, KEWDALE , Western Australia",-31.9835106,115.957064,True
"76 Malaga Drive, MALAGA , Western Australia",-31.867073,115.8964005,True
"1 Capital Road, MALAGA , Western Australia",-31.8484706,115.8790709,True
"585 Canning Highway, ALFRED COVE , Western Australia",-32.0321347,115.8096267,True
"296 Benara Road, MORLEY , Western Australia",-31.8755654,115.9277382,True
"7 Broadway, NEDLANDS , Western Australia",-31.9778602,115.8139911,True
"868 Pinjarra Road, FURNISSDALE , Western Australia",-32.5672758,115.7992103,True
"240 Toodyay Road, STRATTON , Western Australia",-31.8641907,116.0339917,True
"79 Buckingham Drive, WANGARA , Western Australia",-31.7870808,115.8198283,True
"2 Bristol Street, WARNBRO , Western Australia",-32.328576,115.7585268,True
"2 Cunningham Road, WEST KALGOORLIE , Western Australia",,,False
"18 Orchard Road, MADDINGTON , Western Australia",-32.0350884,115.9979714,True
"131 Welsh Drive, NEWMAN , Western Australia",-23.3649812,119.7162215,False
"12-14 Cajarina Road, WEDGEFIELD , Western Australia",-20.3811804,118.58675,True
"1 Mandurah Road, KWINANA BEACH , Western Australia",-32.2384082,115.7811838,True
"183-187 Mandurah Tce, MANDURAH , Western Australia",-32.5048521,115.7412234,True
"1 Wilfred Road, CANNING VALE , Western Australia",-32.0870156,115.90438917326205,False
"180 The Promenade, ELLENBROOK , Western Australia",-31.7747786,115.9610676,True
"1 Canham Way, GREENWOOD , Western Australia",-31.8222847,115.820611,True
"342 Beaufort Street, PERTH , Western Australia",-31.9475299,115.8639313,True
"78 Old York Road, NORTHAM , Western Australia",-31.6492185,116.6834951,True
"128 West Coast Drive, SORRENTO , Western Australia",-31.8223975,115.7421352,False
"229B Hampton Road, SOUTH FREMANTLE , Western Australia",-32.0677524,115.7575207,True
"459 Nicholson Road, CANNING VALE , Western Australia",-32.06335645,115.9363043129526,True
"4267 South Western Highway, NORTH DANDALUP , Western Australia",-32.5225732,115.9700648,True
"84 Strelly Street, BUSSELTON , Western Australia",-33.6631886,115.3489759,True
"2507 Toodyay Road, GIDGEGANNUP , Western Australia",-31.8203756,116.1279746,True
"9 Norton Prom, DALYELLUP , Western Australia",-33.3958765,115.6372718,True
"30215 Brand Highway, DONGARA , Western Australia",-29.2525459,114.9603806,True
"557 Albany Highway, MCKAIL , Western Australia",-34.975944,117.836713,True
"4 Bayonet Head Road, BAYONET HEAD , Western Australia",-34.9814812,117.9295482,False
"6 Pelias Street, EXMOUTH , Western Australia",-21.937845,114.1253901,False
"51 South Western Highway, DONNYBROOK , Western Australia",-33.5795825,115.8404084,True
"13 Stebbing Road, MADDINGTON , Western Australia",-32.0422095,115.9915629,True
"1602 Pinjarra Road, PINJARRA , Western Australia",-32.6224211,115.8646532,True
"121 Quinns Road, QUINNS ROCKS , Western Australia",-31.6726953,115.7085577,True
"1369 Wanneroo Road, WANNEROO , Western Australia",-31.6916696,115.7599059,True
"6 Birnam Road, CANNING VALE , Western Australia",-32.0817776,115.9296873,False
"159 Milner Road, FORRESTFIELD , Western Australia",-31.9571138,115.99674,False
"630 Karel Ave, JANDAKOT , Western Australia",-32.09023855,115.87053456501668,True
"390 Nicholson Road, PIARA WATERS , Western Australia",-32.1412973,115.9240888,True
"1031 Mardie Road, KARRATHA INDUSTRIAL ESTATE , Western Australia",-20.7769247,116.8612558,True
"58 Montana Cres, ALKIMOS , Western Australia",-31.622793,115.6870108,True
"2 Wattleglen Ave, ERSKINE , Western Australia",-32.5649613,115.6815331,True
"370 Baldivis Road, BALDIVIS , Western Australia",-32.2900497,115.8293104,True
"1133-1135 Albany Highway, BENTLEY , Western Australia",-32.0072457,115.9236938,True
"52 Thundelarra Drive, GOLDEN BAY , Western Australia",-32.4186874,115.7595014,False
"1 South Street, KARDINYA , Western Australia",-32.067564,115.8157926,True
"147-149 Grand Ent, AUSTRALIND , Western Australia",-33.2843055,115.7474506,True
"227 Morrison Road, MIDVALE , Western Australia",-31.8855824,116.0305084,True
"276 Port Drive, MINYIRR , Western Australia",-17.997427,122.2042378,False
"370 Victoria Road, MALAGA , Western Australia",-31.8615307,115.9104038,True
"9850 Forrest Highway, VITTORIA , Western Australia",-33.3300309,115.6930827,True
"137 Market Street, CASUARINA , Western Australia",-32.23433035,115.85228391222948,True
"133 Ghost Gum Bvd, BANKSIA GROVE , Western Australia",-31.7021785,115.8018676,True
"24 Dooley Street, NAVAL BASE , Western Australia",-32.1973672,115.7847464,True
"9 Pritchard Street, O'CONNOR , Western Australia",-32.0629923,115.7924559,True
"3 Herdsman Lane, WANNEROO , Western Australia",,,False
"83 Flores Road, WEBBERTON , Western Australia",-28.7536322,114.6295498,True
"1 Harlond Ave, MALAGA , Western Australia",-31.857203,115.8900495,False
"24 Albany Highway, WILLIAMS , Western Australia",-33.0291241,116.8793503,True
"5 Albina Ave, ANKETELL , Western Australia",-32.2128758,115.8554486,True
"Airport Drive (Cnr Paltridge Road), PERTH AIRPORT , Western Australia",,,False
"2533 Great Northern Highway, BULLSBROOK , Western Australia",-31.67191145,116.03141396291343,True
"13 Picton Road, EAST BUNBURY , Western Australia",-33.3477258,115.664544,True
"374 South Street, O'CONNOR , Western Australia",-32.065674,115.8026099,True
"17 Brisbane Street, PERTH , Western Australia",-31.9419145,115.8610113,True
"1/1163 Albany Highway, BENTLEY , Western Australia",-32.0072457,115.9236938,True
"8D Picton Road, EAST BUNBURY , Western Australia",-33.3477258,115.664544,True
"15 Albatross Cres, EATON , Western Australia",-33.321636,115.7158294,True
"Cnr Westfield Road & Ypres Road, CAMILLO , Western Australia",,,False
"190 Railway Pde, BASSENDEAN , Western Australia",-31.9030234,115.9470208,True
"12 Erade Drive, PIARA WATERS , Western Australia",-32.1182511,115.9165495,True
"51 Tiffany Ctr, DALYELLUP , Western Australia",-33.396345,115.6356732,True
"115 Dixon Road, EAST ROCKINGHAM , Western Australia",-32.2769592,115.7827979,True
"302 Blair Street, SOUTH BUNBURY , Western Australia",-33.34236,115.646089,True
"200 North Lake Road, KARDINYA , Western Australia",-32.0678243,115.814973,True
