SiteID,BrandID,BrandName,PetrolStationName,Address,Postcode,Lat,Lng,FuelId,FuelName,Price,TransactionDateUtc,collection_datetime,collection_date
61501591,16,Mobil,Carlton Motors,97 Carlton Pde,5700,-32.490904,137.776586,2,Unleaded,2129.0,2022-03-11T03:54:48.173,2022-09-27 14:00:15.559790,2022-09-27
61501545,12,Independent,Allendale East General Store,50-52 Bay Road,5291,-38.002752,140.709299,2,Unleaded,2269.0,2022-03-15T01:13:39.347,2022-09-27 14:00:15.559790,2022-09-27
61577278,12,Independent,Punyelroo Caravan Park,153 Punyelroo Road,5353,-34.604092,139.603272,2,Unleaded,1895.0,2022-04-15T23:49:57.61,2022-09-27 14:00:15.559790,2022-09-27
61577271,12,Independent,Cape Jaffa Caravan Park,20-32 King Drive,5275,-36.943108,139.685793,2,Unleaded,2200.0,2022-06-22T03:14:19.487,2022-09-27 14:00:15.559790,2022-09-27
61577336,12,Independent,William Creek Hotel,Lot 16 Oodnadatta Track,5723,-28.906542,136.338902,2,Unleaded,3250.0,2022-06-22T03:17:42.617,2022-09-27 14:00:15.559790,2022-09-27
61577326,12,Independent,Angorichina Tourist Village and store,Lot 1395 Parachilna Road,5730,-31.126722,138.561414,2,Unleaded,2390.0,2022-06-23T01:42:51.823,2022-09-27 14:00:15.559790,2022-09-27
61501922,16,Mobil,Cadney Park Roadhouse,69 Stuart Highway,5723,-27.905171,134.056817,2,Unleaded,2389.0,2022-06-24T18:50:04.223,2022-09-27 14:00:15.559790,2022-09-27
61501519,12,Independent,Krieger Rural Store,39-41 Kangaroo Flat Road,5278,-37.565696,140.695461,2,Unleaded,2250.0,2022-06-28T22:48:34.66,2022-09-27 14:00:15.559790,2022-09-27
61577341,12,Independent,Karoonda Bakery,19 Railway Terrace,5307,-35.094241,139.896501,2,Unleaded,2399.0,2022-07-07T04:19:07.027,2022-09-27 14:00:15.559790,2022-09-27
61501647,4896,Mogas,Mid North Tyre Service,18-22 Howes Street,5461,-34.145156,138.414877,2,Unleaded,2139.0,2022-07-08T07:27:16.677,2022-09-27 14:00:15.559790,2022-09-27
61577342,12,Independent,Rawnsley Park Station, Rawnsley Park Road,5434,-31.645022,138.579785,2,Unleaded,2090.0,2022-07-15T23:56:11.623,2022-09-27 14:00:15.559790,2022-09-27
61577343,12,Independent,Kingoonya Caravan Park,27 Harvey Street,5719,-30.914276,135.317639,2,Unleaded,2450.0,2022-07-25T21:43:49.99,2022-09-27 14:00:15.559790,2022-09-27
61501940,16,Mobil,Emmetts Oakbank,206 Onkaparinga Valley Road,5243,-34.984773,138.842035,2,Unleaded,1970.0,2022-07-27T05:47:54.043,2022-09-27 14:00:15.559790,2022-09-27
61501718,3421066,Ampol,Kangarilla Auto Centre,23 Mclaren Flat Road,5157,-35.148358,138.657372,2,Unleaded,1788.0,2022-07-29T01:16:22.133,2022-09-27 14:00:15.559790,2022-09-27
61577279,12,Independent,Bowhill General Store,28 Chucka Bend Road,5238,-34.884579,139.622933,2,Unleaded,1899.0,2022-07-29T11:10:43.577,2022-09-27 14:00:15.559790,2022-09-27
61577373,12,Independent,Lock Deli,34 Railway Terrace,5633,-33.565904219274735,135.75712765396727,2,Unleaded,1979.0,2022-08-02T01:36:23.947,2022-09-27 14:00:15.559790,2022-09-27
61577372,12,Independent,Sheringa Roadhouse,12541 Flinders Hwy,5607,-33.84787603845105,135.2336608526655,2,Unleaded,2599.0,2022-08-04T00:11:17.79,2022-09-27 14:00:15.559790,2022-09-27
61577056,12,Independent,Port Hughes General Store,2 Minnie Terrace,5558,-34.075873,137.545708,2,Unleaded,1769.0,2022-08-04T01:33:56,2022-09-27 14:00:15.559790,2022-09-27
61577312,12,Independent,Carrieton Community Store Incorporated,Allotment 198 Fifth Street,5432,-32.422705,138.528883,2,Unleaded,1935.0,2022-08-08T23:58:28.657,2022-09-27 14:00:15.559790,2022-09-27
61577292,12,Independent,Emmetts Parndana,62 Wedgewood Road,5220,-35.789249,137.264041,2,Unleaded,2090.0,2022-08-09T02:17:19.597,2022-09-27 14:00:15.559790,2022-09-27
61501964,16,Mobil,Kenny Park,"Lot 73, 102 Flinders Highway",5671,-33.169756,134.691924,2,Unleaded,1849.0,2022-08-12T02:12:05.967,2022-09-27 14:00:15.559790,2022-09-27
61501947,16,Mobil,Stirling North Fuel,47 Quorn Rd,5710,-32.517511,137.842667,2,Unleaded,1859.0,2022-08-13T03:36:08.93,2022-09-27 14:00:15.559790,2022-09-27
61570074,4896,Mogas,Hawker Motors,13 Wilpena Road,5434,-31.887489,138.423267,2,Unleaded,1896.0,2022-08-14T07:52:01.92,2022-09-27 14:00:15.559790,2022-09-27
61501681,4896,Mogas,MRO Karoonda,7-9 Railway Terrace,5307,-35.094983,139.894785,2,Unleaded,1799.0,2022-08-17T00:29:26.137,2022-09-27 14:00:15.559790,2022-09-27
61577313,12,Independent,Vivonne Bay General Store & Bottle Shop,4417 South Coast Road,5223,-35.969265,137.178392,2,Unleaded,2180.0,2022-08-19T02:35:57.28,2022-09-27 14:00:15.559790,2022-09-27
61577307,12,Independent,Curtis's Sales & Service,7 John Street,5605,-34.374319,136.092373,2,Unleaded,1738.0,2022-08-19T05:01:45.793,2022-09-27 14:00:15.559790,2022-09-27
61501813,12,Independent,Sutton Ford,14 Ian Oliver Drive,5330,-34.183111,139.991655,2,Unleaded,1694.0,2022-08-22T05:59:16.227,2022-09-27 14:00:15.559790,2022-09-27
61577350,12,Independent,Andamooka Fuel Depot,Lot 107 Opal Creek Boulevard,5722,-30.448249,137.166626,2,Unleaded,2004.0,2022-08-23T02:58:46.51,2022-09-27 14:00:15.559790,2022-09-27
61570028,12,Independent,TG Atkins,13 Main St,5573,-34.496961,137.484678,2,Unleaded,1769.0,2022-08-26T00:13:19.353,2022-09-27 14:00:15.559790,2022-09-27
61577347,5,BP,BP Mount Compass,14A Victor Harbour Road,5210,-35.349615,138.621686,2,Unleaded,1699.0,2022-08-28T11:43:37.927,2022-09-27 14:00:15.559790,2022-09-27
61577269,12,Independent,Port Clinton General Store,21-23 Cumberland Road,5570,-34.224108,138.017951,2,Unleaded,1749.0,2022-08-29T02:03:30.273,2022-09-27 14:00:15.559790,2022-09-27
61570124,4896,Mogas,Leigh Creek South Motors,1 Black Oak Dr,5731,-30.593349,138.403885,2,Unleaded,1969.0,2022-08-29T22:46:02.053,2022-09-27 14:00:15.559790,2022-09-27
61577298,12,Independent,Pink Roadhouse, Lot 42 Ikaturka Terrace,5734,-27.549197,135.448404,2,Unleaded,2700.0,2022-08-29T23:49:22.97,2022-09-27 14:00:15.559790,2022-09-27
61501509,12,Independent,Marion Bay General Store,5 Stenhouse Bay Road,5575,-35.235678,136.980768,2,Unleaded,1790.0,2022-08-30T01:22:03.95,2022-09-27 14:00:15.559790,2022-09-27
61570239,12,Independent,Greenock Convenience Store,37-39 Adelaide Road,5360,-34.459039,138.924982,2,Unleaded,1799.0,2022-08-30T06:52:16.633,2022-09-27 14:00:15.559790,2022-09-27
61577296,12,Independent,Minnipa Community Store,15 Railway Terrace,5654,-32.854504,135.153805,2,Unleaded,180.0,2022-08-31T00:57:49.083,2022-09-27 14:00:15.559790,2022-09-27
61577308,12,Independent,Chris's Mechanical Services,12 Wilpena Road,5434,-31.886917,138.423447,2,Unleaded,1879.0,2022-08-31T02:17:36.46,2022-09-27 14:00:15.559790,2022-09-27
61501542,12,Independent,Venus Bay Licensed General Store,41-43 Matson Terrace,5607,-33.232743,134.670966,2,Unleaded,1950.0,2022-08-31T03:30:12.303,2022-09-27 14:00:15.559790,2022-09-27
61577354,12,Independent,Yelwap Fuel,1950 North East Road,5133,-34.824058,138.774531,2,Unleaded,1799.0,2022-08-31T21:56:28,2022-09-27 14:00:15.559790,2022-09-27
61501461,3421066,Ampol,Dalrymple Motors & Hardware,9A Weaver Street,5582,-34.910105,137.797605,2,Unleaded,1749.0,2022-09-01T00:44:07.21,2022-09-27 14:00:15.559790,2022-09-27
61550321,3421066,Ampol,Marla Travellers Rest, Stuart Highway,5724,-27.304269,133.622489,2,Unleaded,2050.0,2022-09-01T01:05:27.973,2022-09-27 14:00:15.559790,2022-09-27
61577295,12,Independent,The General at Cally,14-16 Baker Street,5254,-35.116621,139.037279,2,Unleaded,1746.0,2022-09-03T23:36:36.71,2022-09-27 14:00:15.559790,2022-09-27
61577302,12,Independent,Springton General Store,3 Miller Street,5235,-34.708535,139.088625,2,Unleaded,1769.0,2022-09-04T22:06:14.637,2022-09-27 14:00:15.559790,2022-09-27
61577339,12,Independent,YP AG,25 Main Street,5580,-34.697726,137.710269,2,Unleaded,1740.0,2022-09-05T00:39:33.623,2022-09-27 14:00:15.559790,2022-09-27
61501496,12,Independent,Cooke's Outback Motors,17 Railway Terrace,5732,-30.553816,138.423913,2,Unleaded,1970.0,2022-09-05T05:35:51.323,2022-09-27 14:00:15.559790,2022-09-27
61501409,3421066,Ampol,Ampol Kingscote,26 Telegraph Road,5223,-35.652935,137.635639,2,Unleaded,1859.0,2022-09-06T07:30:33.883,2022-09-27 14:00:15.559790,2022-09-27
61577294,12,Independent,Booborowie IGA Friendly Grocer & Hardware,23 Sixth Street,5417,-33.564389,138.759947,2,Unleaded,1680.0,2022-09-06T08:00:03.007,2022-09-27 14:00:15.559790,2022-09-27
61577370,12,Independent,Whyalla Airport,"Terminal Building Whyalla Airport, Lincoln Hwy",5601,-33.05217971049726,137.52181098548382,2,Unleaded,2082.0,2022-09-06T08:47:07.653,2022-09-27 14:00:15.559790,2022-09-27
61570125,12,Independent,Eudunda Road House,8 South Tce,5374,-34.176238,139.085487,2,Unleaded,1629.0,2022-09-07T01:12:25.573,2022-09-27 14:00:15.559790,2022-09-27
61501538,12,Independent,Barossa Service Station,13 North St,5353,-34.501479,139.052642,2,Unleaded,1759.0,2022-09-07T04:34:38.2,2022-09-27 14:00:15.559790,2022-09-27
61501495,12,Independent,Point Turton Servo,72 Bayview Road,5575,-34.946808,137.353564,2,Unleaded,1740.0,2022-09-07T05:31:45.737,2022-09-27 14:00:15.559790,2022-09-27
61501499,3421066,Ampol,Ampol Goolwa,36 Cadell St,5214,-35.499354,138.781214,2,Unleaded,1739.0,2022-09-07T11:10:16.26,2022-09-27 14:00:15.559790,2022-09-27
61501400,23,United,United Henley Beach,10 Henley Beach Road,5022,-34.925385,138.497514,2,Unleaded,1629.0,2022-09-07T21:08:57.483,2022-09-27 14:00:15.559790,2022-09-27
61501469,12,Independent,Middleton Convenience,17a Goolwa Road,5213,-35.508402,138.708625,2,Unleaded,1729.0,2022-09-07T21:16:20.53,2022-09-27 14:00:15.559790,2022-09-27
61550329,5,BP,South Coast Marine BP Goolwa,23 Hutchinson Street,5214,-35.505577,138.781158,2,Unleaded,1739.0,2022-09-08T00:43:56.837,2022-09-27 14:00:15.559790,2022-09-27
61577297,12,Independent,Edithburgh Deli & Newsagency,32 Blanche Street,5583,-35.086505,137.745459,2,Unleaded,1719.0,2022-09-08T01:27:07.97,2022-09-27 14:00:15.559790,2022-09-27
61501943,5,BP,Penneshaw Fuel and Hardware,52 Thomas Wilson Street,5222,-35.717623,137.936907,2,Unleaded,1859.0,2022-09-08T03:48:57.017,2022-09-27 14:00:15.559790,2022-09-27
61577040,5,BP,M&G Automotives,60 Main Street,5577,-34.989675,137.398747,2,Unleaded,1770.0,2022-09-08T05:23:16.557,2022-09-27 14:00:15.559790,2022-09-27
61501449,3421066,Ampol,McCracken Ford,1 Edith Terrace,5461,-34.145273,138.411617,2,Unleaded,1630.0,2022-09-08T06:12:52.737,2022-09-27 14:00:15.559790,2022-09-27
61570142,16,Mobil,Wirrulla General Store,75 Hay Tce,5661,-32.403903,134.531733,2,Unleaded,1865.0,2022-09-09T00:24:53.25,2022-09-27 14:00:15.559790,2022-09-27
61501553,5,BP,BP Nangwarry,Lot 305 Riddoch Highway,5277,-37.541098,140.814371,2,Unleaded,1599.0,2022-09-09T02:23:33.667,2022-09-27 14:00:15.559790,2022-09-27
61577349,12,Independent,Wilpena Pound Resort Store, Wilpena Road,5434,-31.528609,138.603958,2,Unleaded,1850.0,2022-09-09T03:16:21.41,2022-09-27 14:00:15.559790,2022-09-27
61501507,12,Independent,The Bridge Garage,7 Gilbert St,5401,-34.357256,138.680968,2,Unleaded,1699.0,2022-09-09T03:38:17.087,2022-09-27 14:00:15.559790,2022-09-27
61577362,12,Independent,The Pines Roadhouse,54 Ti-Tree Road,5577,-34.913356,137.168357,2,Unleaded,1870.0,2022-09-09T04:11:46.547,2022-09-27 14:00:15.559790,2022-09-27
61570047,12,Independent,H T Harslett Rural,16 East Terrace,5473,-33.266867,138.356379,2,Unleaded,1689.0,2022-09-09T23:23:25.71,2022-09-27 14:00:15.559790,2022-09-27
61570090,16,Mobil,Hicks Auto and Engineering,13 Memorial Dr,5271,-36.601126,140.492603,2,Unleaded,1750.0,2022-09-09T23:27:16.78,2022-09-27 14:00:15.559790,2022-09-27
61577272,12,Independent,Lagana's Lyndoch,42 Barossa Valley Highway,5351,-34.601274,138.890441,2,Unleaded,1739.0,2022-09-10T01:55:50.823,2022-09-27 14:00:15.559790,2022-09-27
61570038,3421066,Ampol,Ampol Mt Gambier East - Jubilee Hwy,190 Jubilee Hwy East,5290,-37.839432,140.814073,2,Unleaded,1599.0,2022-09-11T09:25:47.8,2022-09-27 14:00:15.559790,2022-09-27
61501635,3421066,Ampol,Ampol Naracoorte – K&S,241 Smith Street,5271,-36.952212,140.756808,2,Unleaded,1659.0,2022-09-11T09:57:04.047,2022-09-27 14:00:15.559790,2022-09-27
61570068,16,Mobil,Watervale Garage,North Main Rd,5452,-33.963841,138.646068,2,Unleaded,1699.0,2022-09-11T22:20:15,2022-09-27 14:00:15.559790,2022-09-27
61501936,12,Independent,Independent Lucindale OPT,7 Gun Avenue,5272,-36.974535,140.369536,2,Unleaded,1689.0,2022-09-12T00:31:17.097,2022-09-27 14:00:15.559790,2022-09-27
61501698,87,AM/PM,BP Glendambo, Glendambo Access Rd,5710,-30.970109,135.750563,2,Unleaded,1899.0,2022-09-12T04:02:38.647,2022-09-27 14:00:15.559790,2022-09-27
61570350,87,AM/PM,AMPM Roxby Downs,26 Olympic Way,5725,-30.553742,136.893518,2,Unleaded,1899.0,2022-09-12T04:03:56.37,2022-09-27 14:00:15.559790,2022-09-27
61577250,3421066,Ampol,Saltwater Roadhouse,43-46 Flinders Highway,5670,-33.641933,134.889567,2,Unleaded,1799.0,2022-09-12T15:08:27.613,2022-09-27 14:00:15.559790,2022-09-27
61570104,3421066,Ampol,Ampol Coober,Lot 22 Hutchison Road,5723,-29.011316,134.755059,2,Unleaded,2159.0,2022-09-13T00:37:45.333,2022-09-27 14:00:15.559790,2022-09-27
61501603,86,Liberty,Liberty Autopro,19 Mckenzie St,5690,-32.125562,133.676223,2,Unleaded,1689.0,2022-09-13T01:30:16,2022-09-27 14:00:15.559790,2022-09-27
61501511,3421066,Ampol,Birdseye Road House,1 Birdseye Highway,5640,-33.702366,136.499493,2,Unleaded,1840.0,2022-09-13T03:23:11.347,2022-09-27 14:00:15.559790,2022-09-27
61501958,16,Mobil,Golden Wattle Mogas Roadhouse,64 Eyre Highway,5652,-33.053162,135.464776,2,Unleaded,1679.0,2022-09-13T07:05:27.087,2022-09-27 14:00:15.559790,2022-09-27
61577032,2031031,Costco,Costco Kilburn,404-406 Churchill Road,5084,-34.862496,138.581425,2,Unleaded,1447.0,2022-09-13T23:12:06.397,2022-09-27 14:00:15.559790,2022-09-27
61501415,3421066,Ampol,Ampol Meningie,75 Princes Hwy,5264,-35.689146,139.336922,2,Unleaded,1699.0,2022-09-14T00:26:13.467,2022-09-27 14:00:15.559790,2022-09-27
61501963,16,Mobil,Karoonda Mechanical Services,Lot 54 Peake Street,5307,-35.094057,139.893305,2,Unleaded,1756.0,2022-09-14T00:58:59.987,2022-09-27 14:00:15.559790,2022-09-27
61501925,16,Mobil,Delamere General Store,5 Cole Road,5204,-35.570053,138.197707,2,Unleaded,1739.0,2022-09-14T04:42:38.877,2022-09-27 14:00:15.559790,2022-09-27
61550253,111,Coles Express,Coles Express Victor Harbour,165 Hindmarsh Rd,5211,-35.551095,138.623364,2,Unleaded,1699.0,2022-09-14T05:15:40.823,2022-09-27 14:00:15.559790,2022-09-27
61570145,3421066,Ampol,Ampol Naracoorte,46 Gordon Street,5271,-36.961811,140.740351,2,Unleaded,1659.0,2022-09-14T22:39:39.087,2022-09-27 14:00:15.559790,2022-09-27
61501406,12,Independent,Tantanoola Roadhouse,31921 Princes Highway,5280,-37.705845,140.498741,2,Unleaded,1589.0,2022-09-15T00:44:45.993,2022-09-27 14:00:15.559790,2022-09-27
61577301,12,Independent,Southend General Store,5 Eyre Street,5280,-37.570347,140.123737,2,Unleaded,1769.0,2022-09-15T00:58:15.153,2022-09-27 14:00:15.559790,2022-09-27
61501447,3421066,Ampol,Ampol Cowell,211B Lincoln Highway,5602,-33.67587921477462,136.92499305522537,2,Unleaded,1729.0,2022-09-15T04:27:53.697,2022-09-27 14:00:15.559790,2022-09-27
61501946,12,Independent,Port Vincent Auto and Tyre,26 Main St,5581,-34.779721,137.858465,2,Unleaded,1800.0,2022-09-15T05:08:12.63,2022-09-27 14:00:15.559790,2022-09-27
61501959,12,Independent,Yorketown Fuel,5-7 Marno Street,5576,-35.020216,137.603954,2,Unleaded,1710.0,2022-09-15T06:22:49.717,2022-09-27 14:00:15.559790,2022-09-27
61501957,16,Mobil,Central Ag Equipment,3 Burton Terrace,5652,-33.045755,135.459828,2,Unleaded,1719.0,2022-09-15T07:24:21.65,2022-09-27 14:00:15.559790,2022-09-27
61577324,12,Independent,Milang Auto Repairs,27 Watson Street,5256,-35.405939,138.967089,2,Unleaded,1729.0,2022-09-15T22:49:05.07,2022-09-27 14:00:15.559790,2022-09-27
61501589,12,Independent,Westside Vegie Patch,1A Caroona Rd,5700,-32.483942,137.758193,2,Unleaded,1799.0,2022-09-16T02:09:56.543,2022-09-27 14:00:15.559790,2022-09-27
61501660,5094,Puma Energy,Puma Port Augusta,Lot 8 National Highway One,5700,-32.512023,137.803901,2,Unleaded,1637.0,2022-09-16T02:17:11.957,2022-09-27 14:00:15.559790,2022-09-27
61501526,12,Independent,G & C Tyres Peterborough,43 Kitchener Street,5422,-32.971954,138.839201,2,Unleaded,1639.0,2022-09-16T02:52:28.9,2022-09-27 14:00:15.559790,2022-09-27
61577237,5,BP,Matthews Petroleum,7 O'Leary Road,5290,-37.810794,140.753781,2,Unleaded,1549.0,2022-09-16T03:16:47.95,2022-09-27 14:00:15.559790,2022-09-27
61577062,12,Independent,Carpenter Rocks OPT,6 Hercules Road,5291,-37.911094,140.395992,2,Unleaded,1579.0,2022-09-16T03:17:39.563,2022-09-27 14:00:15.559790,2022-09-27
61570147,3421066,Ampol,Flight Motors Pty Ltd,20 Bookpurnong Tce,5333,-34.449739,140.574178,2,Unleaded,1659.0,2022-09-16T03:36:17.037,2022-09-27 14:00:15.559790,2022-09-27
61577275,12,Independent,Smoky Bay General Store,1 Williams Street,5680,-32.375357,133.935095,2,Unleaded,1890.0,2022-09-16T03:39:57.157,2022-09-27 14:00:15.559790,2022-09-27
61570151,23,United,View Point Cafe,12905 Sturt Highway,5330,-34.188098,140.004147,2,Unleaded,1659.0,2022-09-17T23:03:00.867,2022-09-27 14:00:15.559790,2022-09-27
61550286,111,Coles Express,Coles Express Whyalla,41 Playford Av,5608,-33.029393,137.567822,2,Unleaded,1659.0,2022-09-19T00:45:45.04,2022-09-27 14:00:15.559790,2022-09-27
61550275,111,Coles Express,Coles Express Port Augusta West Roadhouse,Highway 1,5700,-32.480783,137.755422,2,Unleaded,1669.0,2022-09-19T00:50:39.597,2022-09-27 14:00:15.559790,2022-09-27
61501443,12,Independent,Wilksh Garage,160 Melrose,5235,-34.770918,139.053186,2,Unleaded,1689.0,2022-09-19T00:51:31.303,2022-09-27 14:00:15.559790,2022-09-27
61501482,3421066,Ampol,Yunta Truckstop, Railway Terrace,5440,-32.580414,139.564479,2,Unleaded,1619.0,2022-09-19T01:00:36.457,2022-09-27 14:00:15.559790,2022-09-27
61577364,12,Independent,Western KI Caravan Park,7928 South Coast Road,5223,-35.960887,136.807755,2,Unleaded,2055.0,2022-09-19T02:08:18.443,2022-09-27 14:00:15.559790,2022-09-27
61501806,3421066,Ampol,Hunts Fuel Jamestown,Mannanarie Rd,5491,-33.194214,138.608927,2,Unleaded,1619.0,2022-09-19T02:49:09.427,2022-09-27 14:00:15.559790,2022-09-27
61577333,12,Independent,Davo's Deli,35 Cook Street,5220,-35.790134,137.261742,2,Unleaded,1980.0,2022-09-19T04:39:22.727,2022-09-27 14:00:15.559790,2022-09-27
61501405,5,BP,Keith OPT,32 Dukes Highway,5267,-36.092543,140.349075,2,Unleaded,1579.0,2022-09-19T04:49:17.19,2022-09-27 14:00:15.559790,2022-09-27
61570015,3421066,Ampol,Ampol Millicent Pines,220 Mt Gambier Rd,5280,-37.613838,140.372252,2,Unleaded,1639.0,2022-09-19T06:14:26.773,2022-09-27 14:00:15.559790,2022-09-27
61501487,3421066,Ampol,Ampol Millicent,George Road,5280,-37.603789,140.359697,2,Unleaded,1659.0,2022-09-19T06:35:46.923,2022-09-27 14:00:15.559790,2022-09-27
61577311,2,Caltex,Caltex Mount Gambier Jubilee Highway Service Station,141-147 Jubilee Highway,5290,-37.818042,140.765912,2,Unleaded,1599.0,2022-09-19T06:56:42.563,2022-09-27 14:00:15.559790,2022-09-27
61501807,3421066,Ampol,Ampol Mount Gambier Jubilee Highway OPT,41 Sutton Avenue,5290,-37.818921,140.764798,2,Unleaded,1579.0,2022-09-19T07:06:03.713,2022-09-27 14:00:15.559790,2022-09-27
61577051,3421066,Ampol,Ampol Mt Gambier Depot Front,40 Graham Road,5290,-37.814645,140.752685,2,Unleaded,1579.0,2022-09-19T07:06:03.713,2022-09-27 14:00:15.559790,2022-09-27
61577304,12,Independent,Port MacDonnell OPT, Tenderden Reserve Sea Parade,5291,-38.055769,140.695117,2,Unleaded,1619.0,2022-09-19T07:07:11.153,2022-09-27 14:00:15.559790,2022-09-27
61577054,3421074,Perrys,Perrys Whyalla,1 Beerworth Avenue,5600,-33.022515,137.565206,2,Unleaded,1659.0,2022-09-19T07:32:12.35,2022-09-27 14:00:15.559790,2022-09-27
61501930,16,Mobil,Mobil Kapunda,122 Main Street,5373,-34.345846,138.912049,2,Unleaded,1629.0,2022-09-19T21:13:05.057,2022-09-27 14:00:15.559790,2022-09-27
61577300,12,Independent,Port Neill Post and Trade,4 Gill Street,5604,-34.117667,136.347566,2,Unleaded,1670.0,2022-09-19T22:49:43.097,2022-09-27 14:00:15.559790,2022-09-27
61577352,12,Independent,Endeavour Petroleum Mt Gambier,260 Jubilee Highway,5291,-37.811259,140.747447,2,Unleaded,1579.0,2022-09-19T23:03:37.02,2022-09-27 14:00:15.559790,2022-09-27
61570095,12,Independent,Clare Rural Supplies,182 Main North Road,5453,-33.836747,138.614695,2,Unleaded,1618.0,2022-09-19T23:04:10.507,2022-09-27 14:00:15.559790,2022-09-27
61501955,23,United,United Wallaroo,5 Charles Tce,5556,-33.929323,137.632197,2,Unleaded,1649.0,2022-09-20T00:17:59.717,2022-09-27 14:00:15.559790,2022-09-27
61501474,3421066,Ampol,Ampol Port Lincoln,30 Hallett Pl & Lewis St,5606,-34.719566,135.855064,2,Unleaded,1675.0,2022-09-20T01:26:36,2022-09-27 14:00:15.559790,2022-09-27
61501941,16,Mobil,Lavricks Roadhouse,Lot 718 Olympic Way,5725,-30.484152,136.892523,2,Unleaded,1899.0,2022-09-20T01:33:21.957,2022-09-27 14:00:15.559790,2022-09-27
61501527,3421066,Ampol,Hunts Fuel Booleroo,34 Arthur Street,5482,-32.881195,138.349068,2,Unleaded,1619.0,2022-09-20T01:46:32.57,2022-09-27 14:00:15.559790,2022-09-27
61577282,12,Independent,Quorn Autoport,24 First Street,5433,-32.346829,138.040297,2,Unleaded,1690.0,2022-09-20T03:11:15.78,2022-09-27 14:00:15.559790,2022-09-27
61577041,12,Independent,Schwarz Motor Repairs,1942 Bookpurnong Road,5333,-34.445901,140.579661,2,Unleaded,1589.0,2022-09-20T03:58:33.36,2022-09-27 14:00:15.559790,2022-09-27
61570025,3421028,X Convenience,X Convenience Port Lincoln,1 Swaffer Street,5606,-34.732817,135.855102,2,Unleaded,1675.0,2022-09-20T04:01:32.307,2022-09-27 14:00:15.559790,2022-09-27
61501430,23,United,United Tailem Bend,32-34 Princes Highway,5260,-35.263177,139.456849,2,Unleaded,1649.0,2022-09-20T04:17:08.957,2022-09-27 14:00:15.559790,2022-09-27
61501618,4896,Mogas,Des's Cabs,5 O'Born Street,5608,-33.037941,137.544539,2,Unleaded,1659.0,2022-09-20T05:20:32.283,2022-09-27 14:00:15.559790,2022-09-27
61501968,4896,Mogas,MRO Lameroo,27 Chandos Tce,5302,-35.325923,140.514963,2,Unleaded,1720.0,2022-09-20T06:07:56.58,2022-09-27 14:00:15.559790,2022-09-27
61501920,3421066,Ampol,Ampol Depot Bordertown,20-22 Dukes Highway,5268,-36.301254,140.762611,2,Unleaded,1659.0,2022-09-20T06:44:58.637,2022-09-27 14:00:15.559790,2022-09-27
61501720,20,Shell,Shell Get & Go Glossop,2 Anderson Terrace,5344,-34.271302,140.530343,2,Unleaded,1599.0,2022-09-20T06:52:34.69,2022-09-27 14:00:15.559790,2022-09-27
61501826,20,Shell,Shell Port Broughton,20 Bay St,5522,-33.600576,137.933253,2,Unleaded,1619.0,2022-09-20T07:30:09.567,2022-09-27 14:00:15.559790,2022-09-27
61577291,12,Independent,Earles Transport,394 Main North Road,5453,-33.822688,138.601716,2,Unleaded,1609.0,2022-09-20T07:50:17.117,2022-09-27 14:00:15.559790,2022-09-27
61577011,3421066,Ampol,Ampol Port Pirie,118 Main Rd & Three Chain Rd,5540,-33.185041,138.020967,2,Unleaded,1599.0,2022-09-20T09:18:55.05,2022-09-27 14:00:15.559790,2022-09-27
61501919,20,Shell,Shell Auburn,11 Main North Road,5451,-34.027766,138.686109,2,Unleaded,1619.0,2022-09-20T10:59:59.83,2022-09-27 14:00:15.559790,2022-09-27
61501426,3421066,Ampol,Ampol Clare,35 Main North Road,5453,-33.852149,138.620025,2,Unleaded,1619.0,2022-09-20T13:34:49.987,2022-09-27 14:00:15.559790,2022-09-27
61570127,23,United,United Mannum,99 Adelaide Road,5238,-34.910903,139.298167,2,Unleaded,1649.0,2022-09-20T20:23:27.68,2022-09-27 14:00:15.559790,2022-09-27
61577277,12,Independent,Lyrup General Store,2 Downer Avenue,5343,-34.257594,140.647935,2,Unleaded,1629.0,2022-09-20T21:20:10,2022-09-27 14:00:15.559790,2022-09-27
61501598,86,Liberty,Eyre Fuels Liberty,103-105 Verran Terrace,5607,-34.737001,135.854262,2,Unleaded,1675.0,2022-09-20T21:49:47.907,2022-09-27 14:00:15.559790,2022-09-27
61501446,5,BP,Tinty Auto & Ag,9-11 Becker Tce,5266,-35.882012,140.053839,2,Unleaded,1670.0,2022-09-20T22:07:47.95,2022-09-27 14:00:15.559790,2022-09-27
61570066,16,Mobil,AS Harris & Sons,12 High Street,5560,-33.864731,138.006008,2,Unleaded,1649.0,2022-09-20T22:37:55.173,2022-09-27 14:00:15.559790,2022-09-27
61501601,3421028,X Convenience,X Convenience Ceduna,57 Mckenzie St,5690,-32.121732,133.687377,2,Unleaded,1719.0,2022-09-20T23:41:11.01,2022-09-27 14:00:15.559790,2022-09-27
61501536,12,Independent,Coffin Bay Supermarket,149-151 Esplanade,5607,-34.622066,135.466391,2,Unleaded,1735.0,2022-09-20T23:46:56.1,2022-09-27 14:00:15.559790,2022-09-27
61501535,12,Independent,Pro Motors,5 Second Street,5431,-32.733176,138.611972,2,Unleaded,1619.0,2022-09-21T00:20:26.887,2022-09-27 14:00:15.559790,2022-09-27
61577045,12,Independent,Fishbowl General Store and Fuel Stop,15 Main Street,5454,-33.498376,138.607477,2,Unleaded,1669.0,2022-09-21T00:31:26,2022-09-27 14:00:15.559790,2022-09-27
61501466,12,Independent,Gaskells Keith (Mini-Tankers), Naracoorte/Riddoch Highway,5267,-36.105952,140.342315,2,Unleaded,1579.0,2022-09-21T00:52:58.563,2022-09-27 14:00:15.559790,2022-09-27
61577050,3421066,Ampol,Ampol Streaky Bay,3 Bay Road,5680,-32.796674,134.210938,2,Unleaded,1739.0,2022-09-21T01:18:00.523,2022-09-27 14:00:15.559790,2022-09-27
61501543,3421066,Ampol,Hallett Country Store,681 Jessie Street,5419,-33.411402,138.892442,2,Unleaded,1770.0,2022-09-21T01:25:06.023,2022-09-27 14:00:15.559790,2022-09-27
61501694,5,BP,BP Ardrossan,2 Main Coast Rd,5571,-34.415395,137.912951,2,Unleaded,1659.0,2022-09-21T01:26:33.82,2022-09-27 14:00:15.559790,2022-09-27
61501911,3421066,Ampol,Hunts Fuel Kadina,7 Martin Terrace,5554,-33.967227,137.717878,2,Unleaded,1619.0,2022-09-21T02:02:39.643,2022-09-27 14:00:15.559790,2022-09-27
61501547,3421066,Ampol,Ampol Redhill, Cnr Pt Augusta Highway and Ellis St West,5521,-33.538058,138.216287,2,Unleaded,1619.0,2022-09-21T02:31:05.477,2022-09-27 14:00:15.559790,2022-09-27
61501983,20,Shell,Streaky Bay Tourist Centre,15 Alfred TCE,5680,-32.795487,134.213975,2,Unleaded,1739.0,2022-09-21T03:22:22.18,2022-09-27 14:00:15.559790,2022-09-27
61501695,5,BP,Eglington Bros,18 Yorketown Road,5573,-34.379197,137.670929,2,Unleaded,1629.0,2022-09-21T03:40:46.38,2022-09-27 14:00:15.559790,2022-09-27
61577281,12,Independent,Star Motors Cowell,49 Main Street,5602,-33.683326,136.922121,2,Unleaded,1740.0,2022-09-21T03:44:34.747,2022-09-27 14:00:15.559790,2022-09-27
61550325,20,Shell,Bordertown Roadhouse,60 North Tce,5268,-36.308268,140.772506,2,Unleaded,1649.0,2022-09-21T04:09:38,2022-09-27 14:00:15.559790,2022-09-27
61501508,2,Caltex,Caltex Robe,6 Main Rd,5276,-37.165736,139.763011,2,Unleaded,1795.0,2022-09-21T04:14:01.09,2022-09-27 14:00:15.559790,2022-09-27
61570112,12,Independent,Independent Kingston 190 Mile Roadhouse,12 Princes Highway,5275,-36.822277,139.864236,2,Unleaded,1619.0,2022-09-21T04:32:51.207,2022-09-27 14:00:15.559790,2022-09-27
61501473,16,Mobil,Mobil Bordertown,41 North Tce,5268,-36.307973,140.772588,2,Unleaded,1649.0,2022-09-21T04:34:29.083,2022-09-27 14:00:15.559790,2022-09-27
61570058,5,BP,BP Gambier West,195 Commercial St West,5290,-37.824153,140.766973,2,Unleaded,1599.0,2022-09-21T05:43:44.667,2022-09-27 14:00:15.559790,2022-09-27
61501805,3421066,Ampol,Jarmos Automotive Services,16 Railway Tce,5280,-37.481258,140.013151,2,Unleaded,1769.0,2022-09-21T05:55:30,2022-09-27 14:00:15.559790,2022-09-27
61570086,3421066,Ampol,Ampol Lameroo (Mallee Tyres),26 Adelaide Road,5302,-35.324272,140.512309,2,Unleaded,1690.0,2022-09-21T06:26:03.153,2022-09-27 14:00:15.559790,2022-09-27
61570138,16,Mobil,Killas Streaky Bay - Perrys,48 Wells St,5680,-32.797225,134.209724,2,Unleaded,1709.0,2022-09-21T06:45:29.247,2022-09-27 14:00:15.559790,2022-09-27
61570009,3421074,Perrys,Perry's Gadd Ave,Cnr Gadd Avenue & Binney Roads,5523,-33.360231,138.201163,2,Unleaded,1599.0,2022-09-21T06:59:02.47,2022-09-27 14:00:15.559790,2022-09-27
61570049,20,Shell,Shell Port Pirie,200 Ellen St,5540,-33.180119,138.011644,2,Unleaded,1599.0,2022-09-21T07:08:36.303,2022-09-27 14:00:15.559790,2022-09-27
61577251,16,Mobil,Mobil Maitland,2 Port Victoria Road,5573,-34.379442,137.667836,2,Unleaded,1625.0,2022-09-21T07:09:58.82,2022-09-27 14:00:15.559790,2022-09-27
61570099,16,Mobil,Mobil Port Pirie,280 The Terrace,5540,-33.187771,138.003546,2,Unleaded,1599.0,2022-09-21T07:11:13.54,2022-09-27 14:00:15.559790,2022-09-27
61501556,12,Independent,Carling Fuel Distributors,9-11 Sixth Street,5433,-32.348733,138.042468,2,Unleaded,1635.0,2022-09-21T07:11:14.227,2022-09-27 14:00:15.559790,2022-09-27
61501548,2,Caltex,Minlaton Auto Centre,2 Main Street,5575,-34.768578,137.597314,2,Unleaded,1639.0,2022-09-21T07:14:56.423,2022-09-27 14:00:15.559790,2022-09-27
61577042,3421066,Ampol,Ampol Naracoorte Depot Front – TASCO,241 Smith Street,5271,-36.952567,140.755656,2,Unleaded,1659.0,2022-09-21T07:33:50.693,2022-09-27 14:00:15.559790,2022-09-27
61577061,12,Independent,C & R Motors,30 High Street,5481,-33.033962,138.269445,2,Unleaded,1679.0,2022-09-21T08:11:54.957,2022-09-27 14:00:15.559790,2022-09-27
61501994,111,Coles Express,Coles Express Port Pirie,91-95 Grey Tce,5540,-33.189895,138.005893,2,Unleaded,1609.0,2022-09-21T09:45:45.563,2022-09-27 14:00:15.559790,2022-09-27
61570119,3421066,Ampol,Ampol Murray Bridge,114 Swanport Rd,5253,-35.131249,139.280361,2,Unleaded,1599.0,2022-09-21T10:02:52.713,2022-09-27 14:00:15.559790,2022-09-27
61550246,111,Coles Express,Coles Express Murray Bridge,57 Adelaide Rd,5253,-35.121845,139.268952,2,Unleaded,1599.0,2022-09-21T10:45:44.353,2022-09-27 14:00:15.559790,2022-09-27
61501610,3421028,X Convenience,X Convenience Murray Bridge,101 Adelaide Rd,5253,-35.123637,139.264395,2,Unleaded,1595.0,2022-09-21T14:40:01.38,2022-09-27 14:00:15.559790,2022-09-27
61501668,3421066,Ampol,Ampol Tailem Bend,8786 Princes Highway,5260,-35.239107,139.440004,2,Unleaded,1649.0,2022-09-21T22:09:47.147,2022-09-27 14:00:15.559790,2022-09-27
61577063,3421066,Ampol,Morgan Roadhouse,14-18 Fourth Street,5320,-34.033849,139.667853,2,Unleaded,1679.0,2022-09-21T22:14:31.77,2022-09-27 14:00:15.559790,2022-09-27
61501924,2,Caltex,Beach Comber Coffin Bay,113 The Esplanade,5607,-34.623132,135.471377,2,Unleaded,1679.0,2022-09-21T22:36:32.713,2022-09-27 14:00:15.559790,2022-09-27
61501687,5,BP,BP Hawker,40 Elder Terrace,5434,-31.889821,138.423861,2,Unleaded,1825.0,2022-09-21T23:27:36.517,2022-09-27 14:00:15.559790,2022-09-27
61501561,3421074,Perrys,Perrys Loxton,1934 Bookpurnong Road,5333,-34.445279,140.580357,2,Unleaded,1587.0,2022-09-21T23:38:33.42,2022-09-27 14:00:15.559790,2022-09-27
61570082,16,Mobil,Mobil Tinman,12236 Augusta Highway,5540,-33.159621,138.067705,2,Unleaded,1609.0,2022-09-21T23:39:51.783,2022-09-27 14:00:15.559790,2022-09-27
61577242,20,Shell,Shell Warnertown,11406 Augusta Highway,5540,-33.220986,138.105832,2,Unleaded,1609.0,2022-09-21T23:40:04.033,2022-09-27 14:00:15.559790,2022-09-27
61570064,16,Mobil,Mobil Kadina,23 Frances Tce,5554,-33.964758,137.714688,2,Unleaded,1619.0,2022-09-22T00:51:11,2022-09-27 14:00:15.559790,2022-09-27
61501546,12,Independent,Cape Jervis Tavern And General Store,35 Main South Road,5204,-35.604074,138.107986,2,Unleaded,1780.0,2022-09-22T01:18:10,2022-09-27 14:00:15.559790,2022-09-27
61501656,3421066,Ampol,Wellington Petroleum,4790 Langhorne Creek Road,5259,-35.332431,139.380833,2,Unleaded,1659.0,2022-09-22T01:26:48.023,2022-09-27 14:00:15.559790,2022-09-27
61501597,16,Mobil,Cruisers Hub Cafe,1/29 Jubilee Drive,5607,-34.743558,135.871863,2,Unleaded,1679.0,2022-09-22T02:26:23.583,2022-09-27 14:00:15.559790,2022-09-27
61501998,20,Shell,Shell Tintinara,22 Dukes Highway,5266,-35.884498,140.056173,2,Unleaded,1559.0,2022-09-22T04:45:25.537,2022-09-27 14:00:15.559790,2022-09-27
61570111,16,Mobil,Mobil Yunta,7 Barrier Highway,5440,-32.580011,139.564745,2,Unleaded,1619.0,2022-09-22T11:04:47.877,2022-09-27 14:00:15.559790,2022-09-27
61501483,16,Mobil,Fuchs Garage,223 Senate Road,5540,-33.187473,137.997668,2,Unleaded,1599.0,2022-09-22T22:12:32.743,2022-09-27 14:00:15.559790,2022-09-27
61577320,12,Independent,Simon Exhaust & Auto Repairs,13 Railway Terrace,5461,-34.144085,138.415917,2,Unleaded,1629.0,2022-09-22T22:46:46.197,2022-09-27 14:00:15.559790,2022-09-27
61577276,12,Independent,Sunlands Service Centre,868 Ramco Road,5330,-34.147058,139.912086,2,Unleaded,1679.0,2022-09-22T23:00:35.033,2022-09-27 14:00:15.559790,2022-09-27
61570109,16,Mobil,North Shields Road House,104 Lincoln Highway,5607,-34.629721,135.863522,2,Unleaded,1675.0,2022-09-22T23:16:22.527,2022-09-27 14:00:15.559790,2022-09-27
61577273,12,Independent,Schahinger Motors,44 Gilbert Street,5401,-34.352962,138.679389,2,Unleaded,1669.0,2022-09-22T23:54:06.123,2022-09-27 14:00:15.559790,2022-09-27
61501692,3421066,Ampol,Wallaroo Service Station,Lot 1 Irwin Street,5556,-33.932918,137.626853,2,Unleaded,1619.0,2022-09-23T00:48:08.523,2022-09-27 14:00:15.559790,2022-09-27
61501950,12,Independent,J.J. TREZISE & SONS,2 Bratten Way,5605,-34.374968,136.098042,2,Unleaded,1679.0,2022-09-23T01:17:05.81,2022-09-27 14:00:15.559790,2022-09-27
61501484,3421066,Ampol,Ampol Murray Bridge,2-8 Princes Highway,5253,-35.112062,139.286078,2,Unleaded,1599.0,2022-09-23T02:20:15.117,2022-09-27 14:00:15.559790,2022-09-27
61577015,3421066,Ampol,Klingner Bros Jamestown,6 Vohr Street,5491,-33.203239,138.603622,2,Unleaded,1619.0,2022-09-23T02:40:34,2022-09-27 14:00:15.559790,2022-09-27
61501425,20,Shell,Shell Coober Pedy,454 Hutchison St & Malliotis St,5723,-29.015961,134.754876,2,Unleaded,2199.0,2022-09-23T02:58:28.12,2022-09-27 14:00:15.559790,2022-09-27
61501604,3421074,Perrys,Perrys Ceduna,28 Mckenzie Street,5690,-32.126024,133.677197,2,Unleaded,1719.0,2022-09-23T03:04:11.087,2022-09-27 14:00:15.559790,2022-09-27
61577038,16,Mobil,Mobil Jamestown,23 Spalding Road,5491,-33.206211,138.602356,2,Unleaded,1619.0,2022-09-23T03:04:55.68,2022-09-27 14:00:15.559790,2022-09-27
61501981,12,Independent,Hanly Auto Repairs,12 Gladstone St,5473,-33.267993,138.356746,2,Unleaded,1640.0,2022-09-23T03:07:53.313,2022-09-27 14:00:15.559790,2022-09-27
61501721,3421066,Ampol,Ampol Victor Harbor,20 Hindmarsh Rd,5211,-35.538741,138.638352,2,Unleaded,1699.0,2022-09-23T04:43:06.347,2022-09-27 14:00:15.559790,2022-09-27
61577016,3421066,Ampol,Ampol Naracoorte (Food and Fuel),109 Gordon Street,5271,-36.969173,140.740158,2,Unleaded,1659.0,2022-09-23T04:46:12,2022-09-27 14:00:15.559790,2022-09-27
61501520,3421066,Ampol,Peterborough Service Station,92 Main St,5422,-32.973257,138.840988,2,Unleaded,1619.0,2022-09-23T04:52:53.777,2022-09-27 14:00:15.559790,2022-09-27
61501921,3421066,Ampol,Burra Roadhouse,26 Commercial St,5417,-33.682903,138.937588,2,Unleaded,1619.0,2022-09-23T04:52:53.777,2022-09-27 14:00:15.559790,2022-09-27
61501685,5,BP,Burra Motor Company,1 Upper Thames Street,5417,-33.681862,138.939508,2,Unleaded,1619.0,2022-09-23T05:17:28.39,2022-09-27 14:00:15.559790,2022-09-27
61577340,12,Independent,Ral Ral Store,323 Ral Ral Avenue,5341,-34.150049,140.727338,2,Unleaded,1679.0,2022-09-23T05:24:05.937,2022-09-27 14:00:15.559790,2022-09-27
61570040,5,BP,BP Barmera,39 Fowles Street,5345,-34.257381,140.466488,2,Unleaded,1619.0,2022-09-23T05:31:25.11,2022-09-27 14:00:15.559790,2022-09-27
61550248,20,Shell,Shell Penola,80 Church Street,5277,-37.375614,140.836263,2,Unleaded,1669.0,2022-09-23T07:24:57.687,2022-09-27 14:00:15.559790,2022-09-27
61577280,12,Independent,Stevens Motors Pty Ltd,15 Herbert Street,5480,-33.186007,138.300779,2,Unleaded,1619.0,2022-09-23T07:39:25.733,2022-09-27 14:00:15.559790,2022-09-27
61577033,4896,Mogas,Bascombe Autoag,2-8 Railway Terrace,5631,-34.261528,135.728911,2,Unleaded,1680.0,2022-09-23T08:01:28.123,2022-09-27 14:00:15.559790,2022-09-27
61577346,12,Independent,Cummins Takeaway and Deli,62 Bruce Terrace,5631,-34.263766,135.727297,2,Unleaded,1670.0,2022-09-23T10:38:04.777,2022-09-27 14:00:15.559790,2022-09-27
61570106,20,Shell,Shell Moonta,1 Blyth Terrace,5558,-34.067839,137.594084,2,Unleaded,1619.0,2022-09-23T11:15:49.73,2022-09-27 14:00:15.559790,2022-09-27
61501935,3421074,Perrys,Perrys Laura,1 Herbert Street,5480,-33.184573,138.301047,2,Unleaded,1619.0,2022-09-23T11:16:20.763,2022-09-27 14:00:15.559790,2022-09-27
61501954,16,Mobil,Walker Flat Shop,4809 Angas Valley Road,5238,-34.753001,139.557366,2,Unleaded,1649.0,2022-09-23T21:37:20.93,2022-09-27 14:00:15.559790,2022-09-27
61501969,5,BP,Edithburgh Motors,55-57 Blanche Street,5583,-35.087785,137.745888,2,Unleaded,1683.0,2022-09-23T22:34:26.45,2022-09-27 14:00:15.559790,2022-09-27
61501967,16,Mobil,Mobil Clare,323 Main North Road,5453,-33.830207,138.608632,2,Unleaded,1619.0,2022-09-23T22:45:27.813,2022-09-27 14:00:15.559790,2022-09-27
61577274,12,Independent,Tschirns Mechanical,7 Main Road,5381,-33.992057,139.080343,2,Unleaded,1629.0,2022-09-23T23:12:13.633,2022-09-27 14:00:15.559790,2022-09-27
61570148,12,Independent,Nundroo Hotel Motel,61660 Eyre Highway,5690,-31.792225,132.224821,2,Unleaded,1709.0,2022-09-23T23:51:56.933,2022-09-27 14:00:15.559790,2022-09-27
61570153,20,Shell,Kimba Motel Roadhouse,15442 Eyre Highway,5641,-33.145673,136.415667,2,Unleaded,1649.0,2022-09-24T06:57:55.917,2022-09-27 14:00:15.559790,2022-09-27
61501956,3421074,Perrys,G M Hitch Auto Repairs,36 Horrocks Highway,5485,-32.650066,138.098237,2,Unleaded,1598.0,2022-09-24T08:02:04.36,2022-09-27 14:00:15.559790,2022-09-27
61501347,3421028,X Convenience,X Convenience Virginia North,92 Old Port Wakefield Road,5120,-34.669024,138.561332,2,Unleaded,1899.0,2022-09-24T19:23:39,2022-09-27 14:00:15.559790,2022-09-27
61501455,16,Mobil,Mobil Wallaroo,2 Victoria St,5556,-33.934601,137.631911,2,Unleaded,1619.0,2022-09-24T23:58:29.967,2022-09-27 14:00:15.559790,2022-09-27
61501710,20,Shell,Shell Get & Go Hahndorf,76 Mount Barker Road,5245,-35.028317,138.809326,2,Unleaded,1899.0,2022-09-25T00:03:19.967,2022-09-27 14:00:15.559790,2022-09-27
61501960,16,Mobil,Nullarbor Roadhouse,75886 Eyre Highway,5690,-31.450326,130.896034,2,Unleaded,2360.0,2022-09-25T00:23:51.36,2022-09-27 14:00:15.559790,2022-09-27
61501073,111,Coles Express,Coles Express Rose Park,150 Fullarton Rd & Alexandra Av,5067,-34.930821,138.623865,2,Unleaded,1899.0,2022-09-25T00:35:40.937,2022-09-27 14:00:15.559790,2022-09-27
61501187,87,AM/PM,BP Mile End,95 Henley Beach Road,5031,-34.924148,138.569685,2,Unleaded,1899.0,2022-09-25T00:38:59,2022-09-27 14:00:15.559790,2022-09-27
61501313,87,AM/PM,AMPM Crafers,3 Main Street,5152,-34.997415,138.703914,2,Unleaded,1899.0,2022-09-25T00:42:36,2022-09-27 14:00:15.559790,2022-09-27
61501352,87,AM/PM,BP Willaston,24-30 Main N Road,5118,-34.588496,138.742922,2,Unleaded,1899.0,2022-09-25T00:45:17,2022-09-27 14:00:15.559790,2022-09-27
61501353,87,AM/PM,AMPM Gawler,22 Murray Street,5118,-34.601857,138.748928,2,Unleaded,1899.0,2022-09-25T00:47:04,2022-09-27 14:00:15.559790,2022-09-27
61501338,87,AM/PM,BP Blakeview,236 Main N Road,5114,-34.670321,138.701853,2,Unleaded,1899.0,2022-09-25T00:50:03,2022-09-27 14:00:15.559790,2022-09-27
61501119,87,AM/PM,AMPM Parafield Gardens,492 Salisbury Highway,5107,-34.791257,138.616023,2,Unleaded,1899.0,2022-09-25T00:55:06,2022-09-27 14:00:15.559790,2022-09-27
61501984,87,AM/PM,AMPM Mawson Lakes,603-615 Salisbury Hwy,5095,-34.802004,138.605835,2,Unleaded,1899.0,2022-09-25T00:55:37,2022-09-27 14:00:15.559790,2022-09-27
61501949,5,BP,Terowie Roadhouse and Motel, Barrier Highway,5421,-33.153582,138.922128,2,Unleaded,1618.0,2022-09-25T00:55:51.177,2022-09-27 14:00:15.559790,2022-09-27
61501078,87,AM/PM,AMPM Edwardstown,62-102 Daws Road,5039,-34.992557,138.569906,2,Unleaded,1899.0,2022-09-25T00:57:04,2022-09-27 14:00:15.559790,2022-09-27
61501311,87,AM/PM,AMPM Stirling,65 Mount Barker Road,5152,-35.006059,138.718233,2,Unleaded,1899.0,2022-09-25T00:58:38,2022-09-27 14:00:15.559790,2022-09-27
61501279,86,Liberty,Liberty Glenunga,563 Portrush Road,5064,-34.949737,138.642639,2,Unleaded,1899.0,2022-09-25T01:00:33,2022-09-27 14:00:15.559790,2022-09-27
61501050,111,Coles Express,Coles Express Windsor Gardens,526 North East Rd & Sudholz Rd,5087,-34.857693,138.655299,2,Unleaded,1899.0,2022-09-25T01:00:48.797,2022-09-27 14:00:15.559790,2022-09-27
61577067,87,AM/PM,AMPM Mount Barker,2 Dutton Road,5251,-35.065046,138.864248,2,Unleaded,1899.0,2022-09-25T01:01:26,2022-09-27 14:00:15.559790,2022-09-27
61577211,87,AM/PM,AMPM West Lakes, Cnr Frederick Rd and West Lakes Boulevard,5021,-34.880102,138.503229,2,Unleaded,1899.0,2022-09-25T01:04:10,2022-09-27 14:00:15.559790,2022-09-27
61577363,3421066,Ampol,Ampol AMPM Elizabeth,"Shop 8, 88 Elizabeth Way",5112,-34.715232,138.671934,2,Unleaded,1899.0,2022-09-25T01:06:37,2022-09-27 14:00:15.559790,2022-09-27
61577233,23,United,United Nairne,91 Old Princes Highway,5252,-35.036535,138.913664,2,Unleaded,1799.0,2022-09-25T01:54:46.397,2022-09-27 14:00:15.559790,2022-09-27
61501552,16,Mobil,Tumby Bay Roadhouse,1 Bratten Way,5605,-34.375084,136.100439,2,Unleaded,1609.0,2022-09-25T01:56:44.43,2022-09-27 14:00:15.559790,2022-09-27
61501354,111,Coles Express,Coles Express Gawler,12 Main North Street,5118,-34.603381,138.748916,2,Unleaded,1899.0,2022-09-25T02:15:44.897,2022-09-27 14:00:15.559790,2022-09-27
61501359,3421028,X Convenience,X Convenience Hackham,138 Main South Road,5163,-35.149777,138.524747,2,Unleaded,1899.0,2022-09-25T03:52:13.043,2022-09-27 14:00:15.559790,2022-09-27
61501374,3421028,X Convenience,X Convenience Lonsdale,52 Aldershot Road,5160,-35.106476,138.507789,2,Unleaded,1899.0,2022-09-25T04:53:07,2022-09-27 14:00:15.559790,2022-09-27
61577048,3421066,Ampol,Ampol Woodside,72-76 Onkaparinga Valley Road,5244,-34.950052,138.876675,2,Unleaded,1899.0,2022-09-25T05:13:04,2022-09-27 14:00:15.559790,2022-09-27
61577316,12,Independent,Cockatoo Valley Community Store,251 Williamstown Road,5351,-34.620358,138.840029,2,Unleaded,1859.0,2022-09-25T06:07:59.623,2022-09-27 14:00:15.559790,2022-09-27
61501225,111,Coles Express,Coles Express Darlington,1477-1479 Main South Rd & Brookside Rd,5047,-35.024528,138.561877,2,Unleaded,1899.0,2022-09-25T06:45:45.81,2022-09-27 14:00:15.559790,2022-09-27
61501226,111,Coles Express,Coles Express Reynella,89 Main South Rd & Lucas St,5161,-35.099337,138.532218,2,Unleaded,1899.0,2022-09-25T06:45:45.827,2022-09-27 14:00:15.559790,2022-09-27
61501193,111,Coles Express,Coles Express Findon,Findon Rd & Grange Rd,5023,-34.904723,138.532691,2,Unleaded,1899.0,2022-09-25T06:50:39.98,2022-09-27 14:00:15.559790,2022-09-27
61501342,111,Coles Express,Coles Express Queenstown,77 Port Rd & Tapleys Hill Rd,5014,-34.863806,138.514705,2,Unleaded,1899.0,2022-09-25T06:50:40.01,2022-09-27 14:00:15.559790,2022-09-27
61501082,111,Coles Express,Coles Express Thebarton,53-57 Port Rd & Smith St,5031,-34.915161,138.577587,2,Unleaded,1899.0,2022-09-25T07:00:51.247,2022-09-27 14:00:15.559790,2022-09-27
61501102,111,Coles Express,Coles Express Elizabeth Park,110 Yorktown Rd & Butterfield Rd,5113,-34.709074,138.684342,2,Unleaded,1899.0,2022-09-25T07:00:51.277,2022-09-27 14:00:15.559790,2022-09-27
61501103,111,Coles Express,Coles Express Smithfield East,Main North Rd & Churcher Av,5114,-34.684736,138.693029,2,Unleaded,1899.0,2022-09-25T07:00:51.293,2022-09-27 14:00:15.559790,2022-09-27
61501441,111,Coles Express,Coles Express Golden Grove,Lot 203 The Grove Wy,5125,-34.789335,138.697756,2,Unleaded,1899.0,2022-09-25T07:00:51.34,2022-09-27 14:00:15.559790,2022-09-27
61501108,111,Coles Express,Coles Express Hope Valley,1230 Grand Junction Rd & Valley Rd,5090,-34.843155,138.701222,2,Unleaded,1899.0,2022-09-25T07:15:45.75,2022-09-27 14:00:15.559790,2022-09-27
61577065,111,Coles Express,Coles Express Park Holme,606-610 Marion Road,5043,-34.983908,138.555755,2,Unleaded,1899.0,2022-09-25T07:15:45.843,2022-09-27 14:00:15.559790,2022-09-27
61501307,16,Mobil,Mobil Aldgate,345 Mt Barker Road,5154,-35.010543,138.748708,2,Unleaded,1899.0,2022-09-25T07:41:43.163,2022-09-27 14:00:15.559790,2022-09-27
61570096,12,Independent,Birdwood Fuel,12-14 Olivedale Street,5234,-34.817734,138.966428,2,Unleaded,1899.0,2022-09-25T07:45:35.03,2022-09-27 14:00:15.559790,2022-09-27
61577208,111,Coles Express,Coles Express Edwardstown,1102 South Road,5039,-34.991857,138.574453,2,Unleaded,1899.0,2022-09-25T08:00:44.34,2022-09-27 14:00:15.559790,2022-09-27
61577010,3421028,X Convenience,X Convenience Mount Barker,66 Wellington Road,5251,-35.081219,138.867903,2,Unleaded,1899.0,2022-09-25T08:26:28.24,2022-09-27 14:00:15.559790,2022-09-27
61501344,3421028,X Convenience,X Convenience Netley,294 Marion Road,5037,-34.951304,138.553453,2,Unleaded,1899.0,2022-09-25T09:40:32.273,2022-09-27 14:00:15.559790,2022-09-27
61501988,3421028,X Convenience,X Convenience Greenfields,569 Salisbury Highway,5107,-34.798094,138.608873,2,Unleaded,1899.0,2022-09-25T09:46:16,2022-09-27 14:00:15.559790,2022-09-27
61501130,3421028,X Convenience,X Convenience Golden Grove,1380 Golden Grove Rd,5125,-34.779635,138.722419,2,Unleaded,1899.0,2022-09-25T09:53:24,2022-09-27 14:00:15.559790,2022-09-27
61501072,3421028,X Convenience,X Convenience St Peters,88 Stephens Tce,5069,-34.901222,138.618602,2,Unleaded,1899.0,2022-09-25T10:06:16.003,2022-09-27 14:00:15.559790,2022-09-27
61501150,86,Liberty,Liberty Golden Grove,The Golden Wy & Sunnybrook Dr,5125,-34.799027,138.686139,2,Unleaded,1899.0,2022-09-25T10:12:14,2022-09-27 14:00:15.559790,2022-09-27
61501274,3421028,X Convenience,X Convenience Unley,21 Edmund Av & Duthy St,5061,-34.951625,138.614098,2,Unleaded,1899.0,2022-09-25T11:02:45.023,2022-09-27 14:00:15.559790,2022-09-27
61501939,20,Shell,Shell Get & Go Nuriootpa,97-99 Greenock Rd,5355,-34.468928,138.976913,2,Unleaded,1899.0,2022-09-25T11:28:09.5,2022-09-27 14:00:15.559790,2022-09-27
61501348,3421028,X Convenience,X Convenience Virginia South,1 Old Port Wakefield Road,5120,-34.670801,138.561555,2,Unleaded,1899.0,2022-09-25T13:05:12,2022-09-27 14:00:15.559790,2022-09-27
61577356,3421028,X Convenience,X Convenience North Brighton,336-340 Brighton Road,5048,-35.007447,138.522785,2,Unleaded,1899.0,2022-09-25T13:52:29.443,2022-09-27 14:00:15.559790,2022-09-27
61577361,3421028,X Convenience,X Convenience Nuriootpa,7 Belvidere Road,5355,-34.460649,138.987008,2,Unleaded,1899.0,2022-09-25T13:57:56.047,2022-09-27 14:00:15.559790,2022-09-27
61577353,3421028,X Convenience,X Convenience Paradise,690-694 Lower North East Road,5075,-34.872563,138.670874,2,Unleaded,1899.0,2022-09-25T13:58:25.19,2022-09-27 14:00:15.559790,2022-09-27
61577261,3421028,X Convenience,X Convenience Newton,2-10 Hamilton Terrace,5074,-34.877181,138.688889,2,Unleaded,1899.0,2022-09-25T13:59:02.05,2022-09-27 14:00:15.559790,2022-09-27
61577267,3421028,X Convenience,X Convenience Newenham, Cnr Bollen And Flaxley Roads,5251,-35.079355,138.850878,2,Unleaded,1899.0,2022-09-25T14:00:30.087,2022-09-27 14:00:15.559790,2022-09-27
61501707,12,Independent,Bridgewater Service Station,466 Mt Barker Road,5155,-35.010451,138.768073,2,Unleaded,1899.0,2022-09-25T20:39:05.247,2022-09-27 14:00:15.559790,2022-09-27
61501932,20,Shell,Shell Get & Go Kersbrook,17 Scott St,5231,-34.781819,138.852252,2,Unleaded,1899.0,2022-09-25T20:47:10.087,2022-09-27 14:00:15.559790,2022-09-27
61501693,16,Mobil,Mobil Moonta,2 George St,5558,-34.069114,137.592731,2,Unleaded,1619.0,2022-09-25T21:30:27.337,2022-09-27 14:00:15.559790,2022-09-27
61570159,20,Shell,Shell Snowtown,4765 Augusta Highway,5520,-33.773355,138.211885,2,Unleaded,1549.0,2022-09-25T21:43:07.72,2022-09-27 14:00:15.559790,2022-09-27
61577334,12,Independent,One Tree Hill General Store, Shop A lot 2 Blacktop Road,5114,-34.718878,138.765533,2,Unleaded,1899.0,2022-09-25T22:07:15,2022-09-27 14:00:15.559790,2022-09-27
61501012,111,Coles Express,Coles Express West Terrace,111 West Tce & Grote St,5000,-34.929914,138.588479,2,Unleaded,1899.0,2022-09-25T22:45:47.653,2022-09-27 14:00:15.559790,2022-09-27
61501019,111,Coles Express,Coles Express Modbury North,432 Montague Rd & Deborah Gr,5092,-34.829138,138.671545,2,Unleaded,1899.0,2022-09-25T22:45:47.667,2022-09-27 14:00:15.559790,2022-09-27
61501020,111,Coles Express,Coles Express Valley View Wright Rd,267 Wright Rd & Rutherford St,5093,-34.835498,138.653462,2,Unleaded,1899.0,2022-09-25T22:45:47.7,2022-09-27 14:00:15.559790,2022-09-27
61501061,111,Coles Express,Coles Express Hectorville,150 Montacute Rd & St Bernards Rd,5073,-34.888665,138.673945,2,Unleaded,1899.0,2022-09-25T22:45:47.713,2022-09-27 14:00:15.559790,2022-09-27
61501287,111,Coles Express,Coles Express West Lakes,113 West Lakes Bvd,5021,-34.877005,138.493082,2,Unleaded,1899.0,2022-09-25T22:45:47.73,2022-09-27 14:00:15.559790,2022-09-27
61501318,111,Coles Express,Coles Express Hawthorn,150 Belair Rd,5062,-34.972683,138.608926,2,Unleaded,1899.0,2022-09-25T22:45:47.76,2022-09-27 14:00:15.559790,2022-09-27
61501321,111,Coles Express,Coles Express Blackwood,371 Shepherds Hill Rd,5051,-35.021433,138.615472,2,Unleaded,1899.0,2022-09-25T22:45:47.777,2022-09-27 14:00:15.559790,2022-09-27
61501106,111,Coles Express,Coles Express Salisbury East,1461 Main North Rd & Mcintyre Rd,5109,-34.791518,138.647868,2,Unleaded,1899.0,2022-09-25T22:50:47.383,2022-09-27 14:00:15.559790,2022-09-27
61501151,111,Coles Express,Coles Express Mansfield Park,452 Grand Junction Rd & William St,5012,-34.850186,138.554692,2,Unleaded,1899.0,2022-09-25T22:50:47.397,2022-09-27 14:00:15.559790,2022-09-27
61501439,111,Coles Express,Coles Express Mclaren Vale,201 Main Rd,5171,-35.213492,138.535068,2,Unleaded,1899.0,2022-09-25T22:50:47.43,2022-09-27 14:00:15.559790,2022-09-27
61577053,3421066,Ampol,Yorketown Roadhouse,8-10 Edithburgh Road,5576,-35.019826,137.606029,2,Unleaded,1664.0,2022-09-25T22:58:24.213,2022-09-27 14:00:15.559790,2022-09-27
61550247,111,Coles Express,Coles Express Naracoorte,62 Stewart St,5271,-36.954271,140.729721,2,Unleaded,1659.0,2022-09-25T23:35:45.88,2022-09-27 14:00:15.559790,2022-09-27
61577029,111,Coles Express,Coles Express Islington,392 Churchill Road,5084,-34.862848,138.583059,2,Unleaded,1899.0,2022-09-25T23:50:41.653,2022-09-27 14:00:15.559790,2022-09-27
61501160,86,Liberty,Liberty Taperoo,457-459 Victoria Road,5017,-34.803279,138.500976,2,Unleaded,1895.0,2022-09-25T23:57:48.347,2022-09-27 14:00:15.559790,2022-09-27
61577257,86,Liberty,Liberty Port Adelaide,11-19 Clare Street,5015,-34.852554,138.508188,2,Unleaded,1895.0,2022-09-25T23:58:39.317,2022-09-27 14:00:15.559790,2022-09-27
61501204,86,Liberty,Liberty Beverley,780 Port Road,5011,-34.884809,138.540145,2,Unleaded,1895.0,2022-09-26T00:00:30.64,2022-09-27 14:00:15.559790,2022-09-27
61501105,111,Coles Express,Coles Express Parafield Gardens,443 Salisbury Hwy & Shepherdson Rd,5107,-34.788748,138.618216,2,Unleaded,1899.0,2022-09-26T00:00:46.64,2022-09-27 14:00:15.559790,2022-09-27
61501123,12,Independent,St Agnes Fuel & Recycling,1272 North East Rd & Hancock Rd,5091,-34.821033,138.719082,2,Unleaded,1887.0,2022-09-26T00:02:48.817,2022-09-27 14:00:15.559790,2022-09-27
61501041,86,Liberty,Liberty Marion,734  Marion Road,5043,-35.004112,138.557245,2,Unleaded,1895.0,2022-09-26T00:03:35.943,2022-09-27 14:00:15.559790,2022-09-27
61501048,86,Liberty,Liberty Windsor Gardens,386 North East Road,5087,-34.866102,138.643756,2,Unleaded,1895.0,2022-09-26T00:03:35.943,2022-09-27 14:00:15.559790,2022-09-27
61501327,86,Liberty,Liberty Camden Park, Cnr Morphett Rd and Mooringe Ave Road,5038,-34.960675,138.536778,2,Unleaded,1895.0,2022-09-26T00:03:35.943,2022-09-27 14:00:15.559790,2022-09-27
61577215,86,Liberty,Liberty Blair Athol,382 Main North Road,5084,-34.863774,138.601016,2,Unleaded,1895.0,2022-09-26T00:03:35.943,2022-09-27 14:00:15.559790,2022-09-27
61577351,86,Liberty,Liberty Nailsworth,129 Main North Road,5083,-34.886525,138.603474,2,Unleaded,1895.0,2022-09-26T00:04:44.32,2022-09-27 14:00:15.559790,2022-09-27
61577357,86,Liberty,Liberty Clearview,232-236 Hampstead Road,5085,-34.860775,138.618063,2,Unleaded,1895.0,2022-09-26T00:04:44.32,2022-09-27 14:00:15.559790,2022-09-27
61577321,12,Independent,Lobethal Garage,66 Main Street,5241,-34.902757,138.874952,2,Unleaded,1899.0,2022-09-26T00:07:43.883,2022-09-27 14:00:15.559790,2022-09-27
61577223,86,Liberty,Liberty Smithfield,237 Curtis Road,5114,-34.673811,138.683248,2,Unleaded,1895.0,2022-09-26T00:08:31.79,2022-09-27 14:00:15.559790,2022-09-27
61577244,86,Liberty,Liberty Port Adelaide, Cnr St Vincents & Perkins Drive,5015,-34.843167,138.514511,2,Unleaded,1895.0,2022-09-26T00:08:31.79,2022-09-27 14:00:15.559790,2022-09-27
61577246,86,Liberty,Liberty Pooraka,226 Bridge Road,5095,-34.821023,138.638283,2,Unleaded,1895.0,2022-09-26T00:08:31.79,2022-09-27 14:00:15.559790,2022-09-27
61577262,3421028,X Convenience,X Convenience Sheidow Park,14 Commercial Road,5158,-35.076793,138.521003,2,Unleaded,1899.0,2022-09-26T00:22:40.893,2022-09-27 14:00:15.559790,2022-09-27
61570373,3421066,Ampol,Store 54,16-18 Stuart Street,5483,-32.825318,138.188053,2,Unleaded,1589.0,2022-09-26T00:23:49,2022-09-27 14:00:15.559790,2022-09-27
61501980,3421066,Ampol,Gladstone Road House,23 Horrocks Highway,5473,-33.264497,138.346054,2,Unleaded,1619.0,2022-09-26T00:25:40.683,2022-09-27 14:00:15.559790,2022-09-27
61501931,3421066,Ampol,Ampol Keith,2 Dukes Highway,5267,-36.087203,140.343367,2,Unleaded,1619.0,2022-09-26T00:35:25.42,2022-09-27 14:00:15.559790,2022-09-27
61501708,86,Liberty,Jarrett Motor Company,510 Mt Barker Road,5155,-35.013144,138.770975,2,Unleaded,1899.0,2022-09-26T00:37:35.49,2022-09-27 14:00:15.559790,2022-09-27
61577359,3421028,X Convenience,X Convenience Hillcrest,473-477 North East Road,5086,-34.861231,138.649623,2,Unleaded,1895.0,2022-09-26T00:42:14,2022-09-27 14:00:15.559790,2022-09-27
61577249,3421028,X Convenience,X Convenience Hampstead Gardens,323 North East Road,5086,-34.871581,138.636481,2,Unleaded,1895.0,2022-09-26T00:43:46,2022-09-27 14:00:15.559790,2022-09-27
61501263,3421028,X Convenience,X Convenience Og Rd,25 Og Rd,5087,-34.878463,138.634697,2,Unleaded,1895.0,2022-09-26T00:44:57.74,2022-09-27 14:00:15.559790,2022-09-27
61501183,86,Liberty,Liberty Richmond,195 Richmond Road,5033,-34.942008,138.562651,2,Unleaded,1899.0,2022-09-26T00:48:18,2022-09-27 14:00:15.559790,2022-09-27
61550281,111,Coles Express,Coles Express Ceduna,30-32 Mckenzie St,5690,-32.126019,133.677329,2,Unleaded,1729.0,2022-09-26T01:05:39.62,2022-09-27 14:00:15.559790,2022-09-27
61501200,3421028,X Convenience,X Convenience Hindmarsh,301 Port Road,5007,-34.902332,138.568876,2,Unleaded,1895.0,2022-09-26T01:06:56.187,2022-09-27 14:00:15.559790,2022-09-27
61501450,3421028,X Convenience,X Convenience Port Adelaide,Lot 12 Grand Junction Road,5015,-34.852745,138.504511,2,Unleaded,1895.0,2022-09-26T01:07:29,2022-09-27 14:00:15.559790,2022-09-27
61577052,3421066,Ampol,Ampol Roseworthy,LOT 44 Roseworthy Road,5371,-34.533148,138.756452,2,Unleaded,1869.0,2022-09-26T01:22:11.053,2022-09-27 14:00:15.559790,2022-09-27
61501403,3421066,Ampol,Ampol Cavan,540 Cross Keys Rd,5094,-34.825438,138.601622,2,Unleaded,1799.0,2022-09-26T01:22:46.29,2022-09-27 14:00:15.559790,2022-09-27
61501962,16,Mobil,SSkids Tyres & Mechanical,1 Barwell St,5374,-34.172557,139.083574,2,Unleaded,1670.0,2022-09-26T01:32:13.833,2022-09-27 14:00:15.559790,2022-09-27
61501523,3421066,Ampol,Blanchetown Enterprises,149 Paisley Road,5357,-34.328997,139.626634,2,Unleaded,1629.0,2022-09-26T01:46:25.69,2022-09-27 14:00:15.559790,2022-09-27
61501971,87,AM/PM,AMPM Roseworthy,443 Horrocks Highway,5371,-34.532931,138.750389,2,Unleaded,1869.0,2022-09-26T01:58:20.173,2022-09-27 14:00:15.559790,2022-09-27
61570030,20,Shell,Shell Mallala,3 Adelaide Road,5502,-34.439107,138.509906,2,Unleaded,1889.0,2022-09-26T02:30:36.923,2022-09-27 14:00:15.559790,2022-09-27
61577247,3421028,X Convenience,X Convenience Klemzig,348 North East Road,5087,-34.869042,138.640386,2,Unleaded,1895.0,2022-09-26T02:31:10,2022-09-27 14:00:15.559790,2022-09-27
61577314,12,Independent,Ardrossan Auto Centre,40 First Street,5571,-34.424159,137.919367,2,Unleaded,1599.0,2022-09-26T03:34:47.093,2022-09-27 14:00:15.559790,2022-09-27
61501712,12,Independent,Fuel n Go Meadows,1 Battunga Road,5201,-35.182092,138.755962,2,Unleaded,1859.0,2022-09-26T04:08:53.703,2022-09-27 14:00:15.559790,2022-09-27
61501711,4896,Mogas,Mogas Meadows,12-14 Battunga Rd & Brooks St,5201,-35.179777,138.756524,2,Unleaded,1859.0,2022-09-26T04:09:48.55,2022-09-27 14:00:15.559790,2022-09-27
61501199,3421028,X Convenience,X Convenience Welland,69 Grange Road,5007,-34.904142,138.558726,2,Unleaded,1889.0,2022-09-26T04:25:24,2022-09-27 14:00:15.559790,2022-09-27
61577231,86,Liberty,Liberty Seaford,47 Eric Road,5168,-35.186464,138.490542,2,Unleaded,1875.0,2022-09-26T04:35:51.63,2022-09-27 14:00:15.559790,2022-09-27
61577256,86,Liberty,Liberty Edinburgh North,225 Womma Road,5113,-34.697785,138.655848,2,Unleaded,1875.0,2022-09-26T04:35:51.63,2022-09-27 14:00:15.559790,2022-09-27
61501722,12,Independent,Silver's Auto Centre,172 Gilbert St,5000,-34.934329,138.593529,2,Unleaded,1799.0,2022-09-26T04:44:31,2022-09-27 14:00:15.559790,2022-09-27
61577241,87,AM/PM,AMPM Strathalbyn,15 South Terrace,5255,-35.258729,138.896325,2,Unleaded,1889.0,2022-09-26T05:14:20.953,2022-09-27 14:00:15.559790,2022-09-27
61577236,3421028,X Convenience,X Convenience Seaford 1,2 Shearer Drive,5169,-35.180994,138.487253,2,Unleaded,1875.0,2022-09-26T05:17:46,2022-09-27 14:00:15.559790,2022-09-27
61577290,12,Independent,Sedan Post Office and Gifts,9 Angaston-Swan Reach Road,5353,-34.572961,139.296466,2,Unleaded,1629.0,2022-09-26T05:21:35,2022-09-27 14:00:15.559790,2022-09-27
61577355,3421028,X Convenience,X Convenience Briens Road,26 Briens Road,5085,-34.845121,138.619293,2,Unleaded,1895.0,2022-09-26T05:38:15,2022-09-27 14:00:15.559790,2022-09-27
61577258,3421028,X Convenience,X Convenience Womma Road,2 Eyre Boulevard,5121,-34.69466825209591,138.6506113002472,2,Unleaded,1875.0,2022-09-26T05:42:05.273,2022-09-27 14:00:15.559790,2022-09-27
61501037,3421028,X Convenience,X Convenience Prospect,122 Main North Road,5082,-34.888426,138.602806,2,Unleaded,1895.0,2022-09-26T05:42:34,2022-09-27 14:00:15.559790,2022-09-27
61501393,3421028,X Convenience,X Convenience Salisbury,1-3 Salisbury Highway,5108,-34.753718,138.648053,2,Unleaded,1889.0,2022-09-26T05:45:58.97,2022-09-27 14:00:15.559790,2022-09-27
61501382,3421028,X Convenience,X Convenience Elizabeth Downs,28 Hamblynn Road,5113,-34.698578,138.692034,2,Unleaded,1895.0,2022-09-26T05:47:40,2022-09-27 14:00:15.559790,2022-09-27
61577243,3421028,X Convenience,X Convenience Valley View,817 North East Road,5093,-34.840799,138.673822,2,Unleaded,1895.0,2022-09-26T05:54:09.893,2022-09-27 14:00:15.559790,2022-09-27
61501162,3421028,X Convenience,X Convenience Semaphore,132 Semaphore Road,5019,-34.840079,138.489082,2,Unleaded,1895.0,2022-09-26T06:05:27,2022-09-27 14:00:15.559790,2022-09-27
61577368,86,Liberty,Liberty Clarence Gardens,837 South Rd,5039,-34.97086223714421,138.5735997147499,2,Unleaded,1889.0,2022-09-26T06:15:30.227,2022-09-27 14:00:15.559790,2022-09-27
61577216,3421028,X Convenience,X Convenience Plympton,366-368 Anzac Highway,5038,-34.968116,138.548584,2,Unleaded,1895.0,2022-09-26T06:20:34,2022-09-27 14:00:15.559790,2022-09-27
61501176,3421028,X Convenience,X Convenience Cross Road,542 Cross Road,5038,-34.967488,138.563788,2,Unleaded,1889.0,2022-09-26T07:06:58.857,2022-09-27 14:00:15.559790,2022-09-27
61501628,86,Liberty,Liberty Old Noarlunga,92 Main South Road,5168,-35.181238,138.495433,2,Unleaded,1875.0,2022-09-26T07:19:03,2022-09-27 14:00:15.559790,2022-09-27
61501340,3421028,X Convenience,X Convenience Croydon Park,328-330 Torrens Rd,5008,-34.881738,138.559867,2,Unleaded,1889.0,2022-09-26T08:06:15,2022-09-27 14:00:15.559790,2022-09-27
61550319,111,Coles Express,Coles Express Port Lincoln,92 Tasman Tce & Bligh St,5606,-34.721357,135.860236,2,Unleaded,1679.0,2022-09-26T08:45:47.137,2022-09-27 14:00:15.559790,2022-09-27
61501208,3421028,X Convenience,X Convenience Woodville North,506 Torrens Road,5012,-34.873106,138.545486,2,Unleaded,1889.0,2022-09-26T09:40:28.317,2022-09-27 14:00:15.559790,2022-09-27
61501926,16,Mobil,Mobil Dublin,Lot 1 Port Wakefield Road,5501,-34.452704,138.353401,2,Unleaded,1539.0,2022-09-26T10:43:19.87,2022-09-27 14:00:15.559790,2022-09-27
61540020,5,BP,BP One Stop,163 Commercial St,5290,-37.831607,140.791746,2,Unleaded,1559.0,2022-09-26T11:23:11.227,2022-09-27 14:00:15.559790,2022-09-27
61577266,3421028,X Convenience,X Convenience Gawler East, Cnr Calton Road and Gawler East Link Road,5118,-34.603268,138.773072,2,Unleaded,1899.0,2022-09-26T13:34:30,2022-09-27 14:00:15.559790,2022-09-27
61501027,2,Caltex,Caltex North Adelaide,131-139 O'Connell St & Gover St,5006,-34.904949,138.595323,2,Unleaded,1899.0,2022-09-26T14:31:00,2022-09-27 14:00:15.559790,2022-09-27
61501032,3421066,Ampol,Ampol Clearview,443 Main North Rd,5085,-34.853701,138.600842,2,Unleaded,1899.0,2022-09-26T14:31:00,2022-09-27 14:00:15.559790,2022-09-27
61501044,3421066,Ampol,Ampol Broadview, 76-80 Hampstead Road (Cnr Ian Street),5083,-34.876278,138.619001,2,Unleaded,1899.0,2022-09-26T14:31:00,2022-09-27 14:00:15.559790,2022-09-27
61501065,3421066,Ampol,Ampol Campbelltown,542 Lower North East Rd,5074,-34.885681,138.659199,2,Unleaded,1899.0,2022-09-26T14:31:00,2022-09-27 14:00:15.559790,2022-09-27
61501079,3421066,Ampol,Ampol Edwardstown,1004 South Rd,5039,-34.981821,138.573708,2,Unleaded,1899.0,2022-09-26T14:31:00,2022-09-27 14:00:15.559790,2022-09-27
61501091,3421066,Ampol,Ampol North Brighton,323-327 Brighton Rd & Lynmouth Av,5048,-35.005885,138.521797,2,Unleaded,1899.0,2022-09-26T14:31:00,2022-09-27 14:00:15.559790,2022-09-27
61501093,3421066,Ampol,Ampol West Hindmarsh,484 Port Road,5007,-34.898127,138.560345,2,Unleaded,1899.0,2022-09-26T14:31:00,2022-09-27 14:00:15.559790,2022-09-27
61501095,3421066,Ampol,Ampol Salisbury Park,1916 Main North Rd & Malinya Dr,5109,-34.758341,138.676203,2,Unleaded,1899.0,2022-09-26T14:31:00,2022-09-27 14:00:15.559790,2022-09-27
61501097,3421066,Ampol,Ampol Modbury,1003 North East Rd & Montague Rd,5092,-34.828014,138.692029,2,Unleaded,1899.0,2022-09-26T14:31:00,2022-09-27 14:00:15.559790,2022-09-27
61501113,2,Caltex,Caltex Elizabeth Vale,149 Main North Road,5112,-34.742288,138.675495,2,Unleaded,1899.0,2022-09-26T14:31:00,2022-09-27 14:00:15.559790,2022-09-27
61501132,2,Caltex,Caltex Salisbury Downs,201 Salisbury Hwy,5108,-34.771504,138.632727,2,Unleaded,1899.0,2022-09-26T14:31:00,2022-09-27 14:00:15.559790,2022-09-27
61501137,3421066,Ampol,Ampol Bolivar Gardens,965 Port Wakefield Road,5110,-34.759859,138.590825,2,Unleaded,1899.0,2022-09-26T14:31:00,2022-09-27 14:00:15.559790,2022-09-27
61501166,3421066,Ampol,Ampol Fulham,467-469 Tapleys Hill Rd,5024,-34.915052,138.513027,2,Unleaded,1899.0,2022-09-26T14:31:00,2022-09-27 14:00:15.559790,2022-09-27
61501171,3421066,Ampol,Ampol Glenelg North,509-511 Anzac Hwy & Pine Av,5045,-34.975418,138.528435,2,Unleaded,1899.0,2022-09-26T14:31:00,2022-09-27 14:00:15.559790,2022-09-27
61501223,3421066,Ampol,Ampol St Marys,1129-1131 South Rd & Southern Av,5042,-34.994564,138.575098,2,Unleaded,1899.0,2022-09-26T14:31:00,2022-09-27 14:00:15.559790,2022-09-27
61501227,3421066,Ampol,Ampol Reynella,3 Main South Rd & Sherriffs Rd,5161,-35.104629,138.527269,2,Unleaded,1899.0,2022-09-26T14:31:00,2022-09-27 14:00:15.559790,2022-09-27
61501234,3421066,Ampol,Ampol Aberfoyle Park,Sandpiper Cr & Hub Dr,5159,-35.076469,138.591373,2,Unleaded,1899.0,2022-09-26T14:31:00,2022-09-27 14:00:15.559790,2022-09-27
61501302,3421066,Ampol,Ampol Grange,328 Military Rd & Terminus St,5022,-34.899878,138.490615,2,Unleaded,1899.0,2022-09-26T14:31:00,2022-09-27 14:00:15.559790,2022-09-27
61501333,3421066,Ampol,Ampol Westbourne Park,427 Goodwood Rd & Angas Rd,5041,-34.974107,138.591825,2,Unleaded,1899.0,2022-09-26T14:31:00,2022-09-27 14:00:15.559790,2022-09-27
61501335,3421066,Ampol,Ampol Cumberland Park,261 Cross Rd & Winston Av,5041,-34.966992,138.582178,2,Unleaded,1899.0,2022-09-26T14:31:00,2022-09-27 14:00:15.559790,2022-09-27
61501336,3421066,Ampol,Ampol Foodary Keswick,409 South Rd & Richmond Rd,5035,-34.942423,138.571577,2,Unleaded,1899.0,2022-09-26T14:31:00,2022-09-27 14:00:15.559790,2022-09-27
61501369,3421066,Ampol,Ampol Gillman,202 Eastern Pde,5013,-34.837301,138.520169,2,Unleaded,1899.0,2022-09-26T14:31:00,2022-09-27 14:00:15.559790,2022-09-27
61501386,3421066,Ampol,Ampol Woodcroft,Panalatinga Rd & Bains Rd,5162,-35.112625,138.547682,2,Unleaded,1899.0,2022-09-26T14:31:00,2022-09-27 14:00:15.559790,2022-09-27
61501390,3421066,Ampol,Ampol Seaford Meadows,61 Seaford Road,5169,-35.180373,138.483285,2,Unleaded,1879.0,2022-09-26T14:31:00,2022-09-27 14:00:15.559790,2022-09-27
61501394,3421066,Ampol,Ampol Noarlunga Downs,Dyson Rd & Goldsmith Dr,5168,-35.143222,138.487516,2,Unleaded,1899.0,2022-09-26T14:31:00,2022-09-27 14:00:15.559790,2022-09-27
61501398,3421066,Ampol,Ampol Wingfield,664-668 South Rd,5013,-34.846837,138.563859,2,Unleaded,1899.0,2022-09-26T14:31:00,2022-09-27 14:00:15.559790,2022-09-27
61501437,3421066,Ampol,Ampol Munno Para,Lot 23 Main North Rd,5115,-34.691722,138.687725,2,Unleaded,1899.0,2022-09-26T14:31:00,2022-09-27 14:00:15.559790,2022-09-27
61501997,3421066,Ampol,Ampol Mount Barker,2 Seckers Road,5251,-35.075857,138.874829,2,Unleaded,1899.0,2022-09-26T14:31:00,2022-09-27 14:00:15.559790,2022-09-27
61577068,3421066,Ampol,Ampol Direk, 2-6 Pilatus Dr Cnr Heaslip Rd,5110,-34.715713,138.601766,2,Unleaded,1899.0,2022-09-26T14:31:00,2022-09-27 14:00:15.559790,2022-09-27
61577205,3421066,Ampol,Ampol Northfield, Cnr Hamstead Rd and Folland Ave,5085,-34.859057,138.618705,2,Unleaded,1899.0,2022-09-26T14:31:00,2022-09-27 14:00:15.559790,2022-09-27
61577209,3421066,Ampol,Ampol Nuriootpa, Cnr Old Sturt Hwy and Murray Street,5355,-34.457251,139.002859,2,Unleaded,1899.0,2022-09-26T14:31:00,2022-09-27 14:00:15.559790,2022-09-27
61577212,3421066,Ampol,Ampol Kilburn,96 Grand Junction Road,5084,-34.848948,138.590889,2,Unleaded,1899.0,2022-09-26T14:31:00,2022-09-27 14:00:15.559790,2022-09-27
61577217,3421066,Ampol,Ampol Foodary Holden Hill,596-600 North East Road,5088,-34.854565,138.662476,2,Unleaded,1899.0,2022-09-26T14:31:00,2022-09-27 14:00:15.559790,2022-09-27
61577219,3421066,Ampol,Ampol Foodary Dry Creek,2 Cavan Road,5094,-34.834685,138.598384,2,Unleaded,1899.0,2022-09-26T14:31:00,2022-09-27 14:00:15.559790,2022-09-27
61501594,86,Liberty,Liberty Victor Harbor,105 Victoria St,5211,-35.558207,138.613913,2,Unleaded,1699.0,2022-09-26T20:27:03.333,2022-09-27 14:00:15.559790,2022-09-27
61570042,3421074,Perrys,Perrys Kyancutta,11 Railway Terrace,5651,-33.133401,135.552721,2,Unleaded,1689.0,2022-09-26T21:16:57.647,2022-09-27 14:00:15.559790,2022-09-27
61501655,3421074,Perrys,Perrys Tarlee,21-33 Main North Road,5411,-34.275043,138.770948,2,Unleaded,1649.0,2022-09-26T21:17:39.617,2022-09-27 14:00:15.559790,2022-09-27
61501612,16,Mobil,Mobil Coober Pedy,17 Hutchison Street,5723,-29.012474,134.754635,2,Unleaded,2139.0,2022-09-26T21:21:02.047,2022-09-27 14:00:15.559790,2022-09-27
61570035,16,Mobil,Mobil Mt Gambier,82 Jubilee Hwy West,5290,-37.819588,140.772224,2,Unleaded,1579.0,2022-09-26T21:21:40.423,2022-09-27 14:00:15.559790,2022-09-27
61501098,3421066,Ampol,Ampol St Agnes,1244 North East Rd & Benbowie St,5097,-34.821599,138.715792,2,Unleaded,1889.0,2022-09-26T21:30:00,2022-09-27 14:00:15.559790,2022-09-27
61577238,3421028,X Convenience,X Convenience 46 Philip Highway,46 Philip Highway,5112,-34.727381,138.665186,2,Unleaded,1889.0,2022-09-26T21:41:17.03,2022-09-27 14:00:15.559790,2022-09-27
61501616,3421066,Ampol,Ampol Aldinga Beach,Aldinga Beach Rd & Pridham Bvd,5173,-35.278799,138.460881,2,Unleaded,1875.0,2022-09-26T21:58:48.653,2022-09-27 14:00:15.559790,2022-09-27
61501811,2,Caltex,Ardrossan Motors,17-19 Fifth Street,5571,-34.423822,137.918516,2,Unleaded,1599.0,2022-09-26T22:01:51.877,2022-09-27 14:00:15.559790,2022-09-27
61501481,3421066,Ampol,Ampol Willinga,16 Main Road,5172,-35.269691,138.554376,2,Unleaded,1879.0,2022-09-26T22:06:26.263,2022-09-27 14:00:15.559790,2022-09-27
61577228,12,Independent,Angaston Motors,23-25 Murray Street,5353,-34.500803,139.049337,2,Unleaded,1639.0,2022-09-26T22:09:59.833,2022-09-27 14:00:15.559790,2022-09-27
61577255,3421028,X Convenience,X Convenience Gepps Cross,702 Main North Road,5094,-34.841243,138.604345,2,Unleaded,1889.0,2022-09-26T22:21:34,2022-09-27 14:00:15.559790,2022-09-27
61501623,16,Mobil,Mobil Littlehampton,35 Old Princess Highway,5250,-35.049485,138.859519,2,Unleaded,1899.0,2022-09-26T22:46:32.15,2022-09-27 14:00:15.559790,2022-09-27
61550334,3421066,Ampol,AMPM Bay Road,32 Bay Rd,5290,-37.832582,140.778459,2,Unleaded,1599.0,2022-09-26T22:54:16.387,2022-09-27 14:00:15.559790,2022-09-27
61501190,3421028,X Convenience,X Convenience Brooklyn Park,299 Henley Beach Road,5032,-34.924992,138.547632,2,Unleaded,1889.0,2022-09-26T22:54:25,2022-09-27 14:00:15.559790,2022-09-27
61501465,12,Independent,Cox Rural Coonalpyn,47-51 Dukes Highway,5265,-35.697796,139.858522,2,Unleaded,1710.0,2022-09-26T22:58:54.413,2022-09-27 14:00:15.559790,2022-09-27
61577239,3421028,X Convenience,X Convenience Aldinga,76 How Road,5173,-35.278096,138.471766,2,Unleaded,1875.0,2022-09-26T23:06:20,2022-09-27 14:00:15.559790,2022-09-27
61570044,87,AM/PM,AMPM Penola Road,2 Scott Court,5290,-37.813102,140.788927,2,Unleaded,1599.0,2022-09-26T23:11:02.787,2022-09-27 14:00:15.559790,2022-09-27
61501289,3421028,X Convenience,X Convenience Torrensville,239 Henley Beach Rd,5031,-34.924793,138.554268,2,Unleaded,1889.0,2022-09-26T23:18:50,2022-09-27 14:00:15.559790,2022-09-27
61550288,111,Coles Express,Coles Express Port Wakefield,2 Snowtown Rd,5550,-34.183072,138.153917,2,Unleaded,1549.0,2022-09-26T23:20:40.893,2022-09-27 14:00:15.559790,2022-09-27
61501196,86,Liberty,Liberty Findon,145 Crittendon Road,5023,-34.895482,138.532035,2,Unleaded,1889.0,2022-09-26T23:25:26,2022-09-27 14:00:15.559790,2022-09-27
61501329,86,Liberty,Liberty Woodville North,107-111 Hanson Road,5012,-34.865495,138.547276,2,Unleaded,1889.0,2022-09-26T23:25:42,2022-09-27 14:00:15.559790,2022-09-27
61501152,86,Liberty,Liberty Wingfield,385 Grand Junction Road,5013,-34.849944,138.547097,2,Unleaded,1885.0,2022-09-26T23:26:01,2022-09-27 14:00:15.559790,2022-09-27
61570102,5,BP,Saddleworth Roadhouse,2 Belvidere Road,5413,-34.083531,138.780335,2,Unleaded,1799.0,2022-09-26T23:43:58.357,2022-09-27 14:00:15.559790,2022-09-27
61501141,3421066,Ampol,Ampol Foodary Pooraka (Mawson Lakes),898 Main North Rd & Montague Rd,5095,-34.824046,138.617185,2,Unleaded,1889.0,2022-09-26T23:45:00,2022-09-27 14:00:15.559790,2022-09-27
61501534,12,Independent,SJ & JA Wild,24169 Horrocks Highway,5485,-32.655441,138.101744,2,Unleaded,1598.0,2022-09-26T23:46:07.533,2022-09-27 14:00:15.559790,2022-09-27
61501060,5,BP,BP Colonial,232 St Bernards Rd & Watson St,5073,-34.890146,138.674065,2,Unleaded,1859.0,2022-09-26T23:49:56.683,2022-09-27 14:00:15.559790,2022-09-27
61501025,23,United,United Pooraka,895 Main North Rd,5095,-34.825525,138.616713,2,Unleaded,1889.0,2022-09-27T00:30:07.59,2022-09-27 14:00:15.559790,2022-09-27
61577232,3421066,Ampol,Ampol Normanville,216 Main South Road,5204,-35.452294,138.328517,2,Unleaded,1599.0,2022-09-27T00:39:40.8,2022-09-27 14:00:15.559790,2022-09-27
61550242,111,Coles Express,Coles Express Mount Gambier,100 Commercial St West,5290,-37.826364,140.775159,2,Unleaded,1599.0,2022-09-27T00:45:46.157,2022-09-27 14:00:15.559790,2022-09-27
61550250,111,Coles Express,Coles Express Tailem Bend,69-71 Princes Hwy,5260,-35.253694,139.452752,2,Unleaded,1659.0,2022-09-27T00:45:46.187,2022-09-27 14:00:15.559790,2022-09-27
61550277,111,Coles Express,Coles Express Waikerie,1 Peake Tce,5330,-34.178754,139.984999,2,Unleaded,1679.0,2022-09-27T00:45:46.233,2022-09-27 14:00:15.559790,2022-09-27
61550278,111,Coles Express,Coles Express Port Augusta Meteor Roadhouse,Hwy One,5700,-32.510527,137.798054,2,Unleaded,1669.0,2022-09-27T01:05:41.663,2022-09-27 14:00:15.559790,2022-09-27
61501640,12,Independent,Bulls Garage Coober Pedy,143-147 Hutchison Street,5723,-29.005011,134.755962,2,Unleaded,2170.0,2022-09-27T01:53:33.007,2022-09-27 14:00:15.559790,2022-09-27
61577315,86,Liberty,24 Seven Port Wakefield,8666 Port Wakefield Highway,5550,-34.189381,138.156853,2,Unleaded,1889.0,2022-09-27T01:53:33.693,2022-09-27 14:00:15.559790,2022-09-27
61501112,111,Coles Express,Coles Express Fairview Park,323 Hancock Rd & Littler Dr,5126,-34.802925,138.717481,2,Unleaded,1899.0,2022-09-27T02:05:43.227,2022-09-27 14:00:15.559790,2022-09-27
61501264,111,Coles Express,Coles Express Klemzig,44 Og Rd & Fourth Av,5087,-34.878758,138.635318,2,Unleaded,1899.0,2022-09-27T02:05:43.26,2022-09-27 14:00:15.559790,2022-09-27
61501242,111,Coles Express,Coles Express Hallett Cove,2 Ramrod Av,5158,-35.077794,138.518107,2,Unleaded,1899.0,2022-09-27T02:15:46.53,2022-09-27 14:00:15.559790,2022-09-27
61577064,111,Coles Express,Coles Express Woodville,827-837 Port Road,5011,-34.878151,138.532189,2,Unleaded,1899.0,2022-09-27T02:15:46.563,2022-09-27 14:00:15.559790,2022-09-27
61501428,3421066,Ampol,Ampol Penong, Eyre Highway,5690,-31.928512,133.009655,2,Unleaded,1729.0,2022-09-27T02:19:00,2022-09-27 14:00:15.559790,2022-09-27
61501683,20,Shell,24 Seven Blanchetown,8657 Sturt Highway,5357,-34.350752,139.602892,2,Unleaded,1599.0,2022-09-27T02:20:13.513,2022-09-27 14:00:15.559790,2022-09-27
61501678,20,Shell,24 Seven Keith,14 Dukes Hwy,5267,-36.105131,140.361759,2,Unleaded,1699.0,2022-09-27T02:20:45.27,2022-09-27 14:00:15.559790,2022-09-27
61501585,3421066,Ampol,Ampol Port Augusta,63 Victoria Pde,5700,-32.500023,137.778614,2,Unleaded,1669.0,2022-09-27T02:23:00,2022-09-27 14:00:15.559790,2022-09-27
61501477,3421066,Ampol,Ampol Yamba, Sturt Highway,5341,-34.260687,140.862692,2,Unleaded,1669.0,2022-09-27T02:37:00,2022-09-27 14:00:15.559790,2022-09-27
61501165,12,Independent,Southern Cross Fulham Gardens,500 Grange Road,5024,-34.906626,138.509273,2,Unleaded,1759.0,2022-09-27T02:48:30,2022-09-27 14:00:15.559790,2022-09-27
61501237,111,Coles Express,Coles Express Noarlunga,Beach Rd & Hannah Rd,5168,-35.138151,138.497447,2,Unleaded,1899.0,2022-09-27T02:50:42.207,2022-09-27 14:00:15.559790,2022-09-27
61501257,4896,Mogas,Mogas Magill,2/659 Magill Road,5072,-34.912632,138.680264,2,Unleaded,1899.0,2022-09-27T03:01:16,2022-09-27 14:00:15.559790,2022-09-27
61577371,12,Independent,Willalooka Tavern,3449 Riddoch Hwy,5267,-36.393204773291075,140.35098667949984,2,Unleaded,1076.0,2022-09-27T03:13:24.727,2022-09-27 14:00:15.559790,2022-09-27
61570128,23,United,United Tintinara,Dukes Hwy,5266,-35.879486,140.050888,2,Unleaded,1559.0,2022-09-27T03:21:28.103,2022-09-27 14:00:15.559790,2022-09-27
61501670,23,United,United Berri,2-4 Sturt Highway,5343,-34.283332,140.596193,2,Unleaded,1599.0,2022-09-27T03:21:29.087,2022-09-27 14:00:15.559790,2022-09-27
61501296,23,United,United Seaton,171 Tapleys Hill Rd & Morley Rd,5023,-34.882187,138.513093,2,Unleaded,1889.0,2022-09-27T03:21:30.043,2022-09-27 14:00:15.559790,2022-09-27
61501564,23,United,United Strathalbyn,18 South Terrace,5255,-35.260374,138.893847,2,Unleaded,1889.0,2022-09-27T03:21:31.103,2022-09-27 14:00:15.559790,2022-09-27
61501291,23,United,United Adelaide Airport,Sir Richard Williams Av,5000,-34.934591,138.540011,2,Unleaded,1889.0,2022-09-27T03:21:32.137,2022-09-27 14:00:15.559790,2022-09-27
61501031,23,United,United Blair Athol,369 Prospect Rd & Audrey Av,5084,-34.861832,138.592402,2,Unleaded,1885.0,2022-09-27T03:21:33.137,2022-09-27 14:00:15.559790,2022-09-27
61570001,23,United,United Whyalla,49 Norrie Av,5608,-33.024941,137.550554,2,Unleaded,1659.0,2022-09-27T03:21:34.167,2022-09-27 14:00:15.559790,2022-09-27
61550268,23,United,United Barmera Roadhouse,69 Tonkin Av,5345,-34.256816,140.464358,2,Unleaded,1599.0,2022-09-27T03:21:35.183,2022-09-27 14:00:15.559790,2022-09-27
61570100,23,United,United Lower Light,9 Wylie Road,5501,-34.533096,138.437134,2,Unleaded,1539.0,2022-09-27T03:21:36.307,2022-09-27 14:00:15.559790,2022-09-27
61501486,23,United,United Murray Bridge,155 Adelaide Rd,5253,-35.128223,139.253375,2,Unleaded,1599.0,2022-09-27T03:21:37.37,2022-09-27 14:00:15.559790,2022-09-27
61570027,23,United,United Port Wakefield,6 Snowtown Rd,5550,-34.182372,138.154004,2,Unleaded,1889.0,2022-09-27T03:21:38.463,2022-09-27 14:00:15.559790,2022-09-27
61501024,23,United,United Pooraka,876 Main North Rd & Diagonal Rd,5095,-34.826301,138.615323,2,Unleaded,1889.0,2022-09-27T03:21:39.497,2022-09-27 14:00:15.559790,2022-09-27
61570057,23,United,United Truro,52-56 Moorundie Street,5356,-34.409358,139.128825,2,Unleaded,1479.0,2022-09-27T03:21:40.543,2022-09-27 14:00:15.559790,2022-09-27
61577248,23,United,United Melrose Park,993-997 South Road,5039,-34.982174,138.574316,2,Unleaded,1889.0,2022-09-27T03:21:41.543,2022-09-27 14:00:15.559790,2022-09-27
61501207,23,United,United Pennington,656 Torrens Rd & Burleigh Av,5014,-34.864168,138.530527,2,Unleaded,1889.0,2022-09-27T03:21:42.603,2022-09-27 14:00:15.559790,2022-09-27
61577260,23,United,United Flinders Park,154-156 Grange Road,5025,-34.904983,138.551039,2,Unleaded,1889.0,2022-09-27T03:21:43.683,2022-09-27 14:00:15.559790,2022-09-27
61577240,23,United,United Queenstown,1-7 Port Road,5014,-34.868422,138.517162,2,Unleaded,1885.0,2022-09-27T03:21:44.793,2022-09-27 14:00:15.559790,2022-09-27
61501156,23,United,United Rosewater,128 Grand Junction Rd,5013,-34.851729,138.524699,2,Unleaded,1885.0,2022-09-27T03:21:45.887,2022-09-27 14:00:15.559790,2022-09-27
61577328,23,United,United Petroleum Mount Gambier,193-195 Jubilee Highway East,5291,-37.839221,140.815175,2,Unleaded,1559.0,2022-09-27T03:21:46.95,2022-09-27 14:00:15.559790,2022-09-27
61577369,23,United,United Petroleum Elizabeth South,185 Philip Hwy,5112,-34.74515852342621,138.65822570720903,2,Unleaded,1889.0,2022-09-27T03:21:48.057,2022-09-27 14:00:15.559790,2022-09-27
61501387,169,On the Run,OTR Aldinga,Main South Rd & Port Rd,5173,-35.267936,138.484233,2,Unleaded,1879.0,2022-09-27T03:36:00,2022-09-27 14:00:15.559790,2022-09-27
61570101,23,United,United Renmark,220 Renmark Avenue,5341,-34.176133,140.743651,2,Unleaded,1665.0,2022-09-27T03:37:01,2022-09-27 14:00:15.559790,2022-09-27
61501026,3421073,EG Ampol,EG Ampol Blair Athol,355 Prospect Rd & Trigg St,5082,-34.863209,138.592684,2,Unleaded,1899.0,2022-09-27T03:45:00,2022-09-27 14:00:15.559790,2022-09-27
61501218,112,Caltex Woolworths,Caltex Woolworths Somerton Park,150 Brighton Rd & Moore St,5044,-34.991172,138.521422,2,Unleaded,1899.0,2022-09-27T03:45:00,2022-09-27 14:00:15.559790,2022-09-27
61501304,3421073,EG Ampol,EG Ampol O'Halloran Hill,54 Main South Rd,5158,-35.051788,138.559907,2,Unleaded,1899.0,2022-09-27T03:45:00,2022-09-27 14:00:15.559790,2022-09-27
61501317,3421073,EG Ampol,EG Ampol Mitcham,119 Belair Rd & Newark Rd,5062,-34.976119,138.609621,2,Unleaded,1899.0,2022-09-27T03:45:00,2022-09-27 14:00:15.559790,2022-09-27
61501319,3421073,EG Ampol,EG Ampol Eden Hills,272 Shepherds Hill Rd & Northcote Rd,5050,-35.026568,138.603945,2,Unleaded,1899.0,2022-09-27T03:45:00,2022-09-27 14:00:15.559790,2022-09-27
61501366,112,Caltex Woolworths,Caltex Woolworths Marryatville (Kensington),220-224 Kensington Rd & Dudley St,5068,-34.926648,138.649179,2,Unleaded,1899.0,2022-09-27T03:45:00,2022-09-27 14:00:15.559790,2022-09-27
61501420,112,Caltex Woolworths,Caltex Woolworths Renmark,202-206 Renmark Av,5341,-34.175228,140.744744,2,Unleaded,1669.0,2022-09-27T03:45:00,2022-09-27 14:00:15.559790,2022-09-27
61501485,112,Caltex Woolworths,Caltex Woolworths Port Augusta,Cnr Almein St & Maryatt St,5700,-32.489425,137.762741,2,Unleaded,1669.0,2022-09-27T03:45:00,2022-09-27 14:00:15.559790,2022-09-27
61501619,112,Caltex Woolworths,Caltex Woolworths Port Pirie,137 Florence St & Mary-Elie,5540,-33.180635,138.010712,2,Unleaded,1599.0,2022-09-27T03:45:00,2022-09-27 14:00:15.559790,2022-09-27
61501620,112,Caltex Woolworths,Caltex Woolworths Golden Grove,Aeolian Dr,5125,-34.789411,138.695317,2,Unleaded,1899.0,2022-09-27T03:45:00,2022-09-27 14:00:15.559790,2022-09-27
61501624,112,Caltex Woolworths,Caltex Woolworths Whyalla Westlands,7-11 Ekblom St,5600,-33.027633,137.534922,2,Unleaded,1659.0,2022-09-27T03:45:00,2022-09-27 14:00:15.559790,2022-09-27
61501625,3421073,EG Ampol,EG Ampol Felixstow,469 Payneham Rd,5070,-34.890122,138.653887,2,Unleaded,1899.0,2022-09-27T03:45:00,2022-09-27 14:00:15.559790,2022-09-27
61501636,112,Caltex Woolworths,Caltex Woolworths Naracoorte,12 Mcrae St,5271,-36.957258,140.741604,2,Unleaded,1659.0,2022-09-27T03:45:00,2022-09-27 14:00:15.559790,2022-09-27
61501641,112,Caltex Woolworths,Caltex Woolworths Victor Harbour,31 Torrens Rd & Hindmarsh Rd,5211,-35.553882,138.620777,2,Unleaded,1699.0,2022-09-27T03:45:00,2022-09-27 14:00:15.559790,2022-09-27
61501659,3421073,EG Ampol,EG Ampol Gilles Plains,575 North East Rd & Sudholz Rd,5086,-34.856331,138.654705,2,Unleaded,1899.0,2022-09-27T03:45:00,2022-09-27 14:00:15.559790,2022-09-27
61501664,112,Caltex Woolworths,Caltex Woolworths Murray Bridge,1 Standan St & Princes Hwy,5253,-35.120459,139.273738,2,Unleaded,1599.0,2022-09-27T03:45:00,2022-09-27 14:00:15.559790,2022-09-27
61501666,112,Caltex Woolworths,Caltex Woolworths Hollywood Plaza (Salisbury Downs),122-200 Winzor St,5108,-34.767777,138.622658,2,Unleaded,1899.0,2022-09-27T03:45:00,2022-09-27 14:00:15.559790,2022-09-27
61501667,112,Caltex Woolworths,Caltex Woolworths Mount Gambier,108 -110 Commercial St,5290,-37.830387,140.786284,2,Unleaded,1599.0,2022-09-27T03:45:00,2022-09-27 14:00:15.559790,2022-09-27
61501701,112,Caltex Woolworths,Caltex Woolworths Kadina,21 Frances Tce,5554,-33.964951,137.715413,2,Unleaded,1629.0,2022-09-27T03:45:00,2022-09-27 14:00:15.559790,2022-09-27
61501714,112,Caltex Woolworths,Caltex Woolworths Port Lincoln,Mortlock Tce & Boston St,5606,-34.725267,135.858954,2,Unleaded,1679.0,2022-09-27T03:45:00,2022-09-27 14:00:15.559790,2022-09-27
61501715,112,Caltex Woolworths,Caltex Woolworths Stirling,66 Mount Barker Rd,5152,-35.007676,138.720023,2,Unleaded,1899.0,2022-09-27T03:45:00,2022-09-27 14:00:15.559790,2022-09-27
61501916,112,Caltex Woolworths,Caltex Woolworths Noarlunga Centre,Goldsmith Dr,5168,-35.144225,138.497704,2,Unleaded,1899.0,2022-09-27T03:45:00,2022-09-27 14:00:15.559790,2022-09-27
61501973,112,Caltex Woolworths,Caltex Woolworths Elizabeth,Philip Hwy & Grenville St,5112,-34.719774,138.671015,2,Unleaded,1899.0,2022-09-27T03:45:00,2022-09-27 14:00:15.559790,2022-09-27
61501978,3421073,EG Ampol,EG Ampol Seaford,131-145 Griffiths Dv,5169,-35.192267,138.480479,2,Unleaded,1879.0,2022-09-27T03:45:00,2022-09-27 14:00:15.559790,2022-09-27
61501979,112,Caltex Woolworths,Caltex Woolworths Evanston,367 Main North Road,5116,-34.622679,138.737738,2,Unleaded,1899.0,2022-09-27T03:45:00,2022-09-27 14:00:15.559790,2022-09-27
61501989,112,Caltex Woolworths,Caltex Woolworths Burton,382-396 Waterloo Corner Road,5110,-34.740731,138.605089,2,Unleaded,1899.0,2022-09-27T03:45:00,2022-09-27 14:00:15.559790,2022-09-27
61501991,3421073,EG Ampol,EG Ampol West Richmond,130-132 Marion Rd,5033,-34.936699,138.552624,2,Unleaded,1899.0,2022-09-27T03:45:00,2022-09-27 14:00:15.559790,2022-09-27
61501995,112,Caltex Woolworths,Caltex Woolworths Mount Gambier Marketplace,176 Penola Road,5290,-37.807848,140.791443,2,Unleaded,1599.0,2022-09-27T03:45:00,2022-09-27 14:00:15.559790,2022-09-27
61577060,3421073,EG Ampol,EG Ampol Mt Barker,"Unit 1, 1 Burrett Way",5251,-35.055456,138.851728,2,Unleaded,1899.0,2022-09-27T03:45:00,2022-09-27 14:00:15.559790,2022-09-27
61577066,112,Caltex Woolworths,Caltex Woolworths Nailsworth,113 Main North Road,5083,-34.887954,138.603458,2,Unleaded,1899.0,2022-09-27T03:45:00,2022-09-27 14:00:15.559790,2022-09-27
61577224,112,Caltex Woolworths,Caltex Woolworths Goolwa,137 Beach Road,5214,-35.505132,138.776311,2,Unleaded,1739.0,2022-09-27T03:45:00,2022-09-27 14:00:15.559790,2022-09-27
61577234,3421073,EG Ampol,EG Ampol Kilkenny, Hanson Road (Cnr First Avenue),5009,-34.872303,138.548288,2,Unleaded,1899.0,2022-09-27T03:45:00,2022-09-27 14:00:15.559790,2022-09-27
61501076,169,On the Run,OTR Pasadena,14 Fiveash Dr & Painter St,5042,-35.001015,138.591021,2,Unleaded,1899.0,2022-09-27T03:48:00,2022-09-27 14:00:15.559790,2022-09-27
61501107,169,On the Run,OTR Kilburn,427 Churchill Rd & Northcote St,5084,-34.859449,138.583511,2,Unleaded,1899.0,2022-09-27T03:48:00,2022-09-27 14:00:15.559790,2022-09-27
61501147,169,On the Run,OTR Para Hills,321 Bridge Rd,5096,-34.813935,138.643263,2,Unleaded,1899.0,2022-09-27T03:48:00,2022-09-27 14:00:15.559790,2022-09-27
61501148,169,On the Run,OTR Para Hills West,Kesters Rd & Main North Rd,5096,-34.800845,138.639866,2,Unleaded,1899.0,2022-09-27T03:48:00,2022-09-27 14:00:15.559790,2022-09-27
61501149,169,On the Run,OTR Holden Hill South Cnr Tarton Road,660 North East Rd & Tarton Rd,5088,-34.852846,138.665573,2,Unleaded,1899.0,2022-09-27T03:48:00,2022-09-27 14:00:15.559790,2022-09-27
61501155,169,On the Run,OTR Rosewater,125 Grand Junction Rd & Evans St,5013,-34.851462,138.524597,2,Unleaded,1899.0,2022-09-27T03:48:00,2022-09-27 14:00:15.559790,2022-09-27
61501158,169,On the Run,OTR Largs Bay Victoria Road,208-210 Victoria Rd & Jetty Rd,5016,-34.825724,138.500574,2,Unleaded,1899.0,2022-09-27T03:48:00,2022-09-27 14:00:15.559790,2022-09-27
61501189,169,On the Run,OTR Underdale,282 Henley Beach Rd & Holbrooks Rd,5032,-34.924452,138.549519,2,Unleaded,1899.0,2022-09-27T03:48:00,2022-09-27 14:00:15.559790,2022-09-27
61501252,169,On the Run,OTR Norwood,76 The Pde & Elizabeth St,5067,-34.921539,138.630076,2,Unleaded,1899.0,2022-09-27T03:48:00,2022-09-27 14:00:15.559790,2022-09-27
61501401,169,On the Run,OTR Harbourtown,Tapleys Hill Rd & West Beach Rd,5024,-34.945892,138.517316,2,Unleaded,1899.0,2022-09-27T03:48:00,2022-09-27 14:00:15.559790,2022-09-27
61501432,169,On the Run,OTR Tanunda,212 Barossa Valley Hwy & Para Rd,5352,-34.511491,138.975767,2,Unleaded,1899.0,2022-09-27T03:48:00,2022-09-27 14:00:15.559790,2022-09-27
61501516,169,On the Run,OTR Littlehampton,81 Main Rd,5250,-35.048081,138.866047,2,Unleaded,1899.0,2022-09-27T03:48:00,2022-09-27 14:00:15.559790,2022-09-27
61501600,169,On the Run,OTR Ceduna,35 Eyre Hwy,5690,-32.113495,133.672566,2,Unleaded,1729.0,2022-09-27T03:48:00,2022-09-27 14:00:15.559790,2022-09-27
61501663,169,On the Run,OTR Nuriootpa,Tanunda Rd & New St,5355,-34.476613,138.995205,2,Unleaded,1899.0,2022-09-27T03:48:00,2022-09-27 14:00:15.559790,2022-09-27
61550323,169,On the Run,OTR Kingston SE,1 Princes Hwy,5275,-36.825292,139.862079,2,Unleaded,1649.0,2022-09-27T03:48:00,2022-09-27 14:00:15.559790,2022-09-27
61570132,169,On the Run,OTR Murray Bridge Eastside,65 Princes Hwy East,5253,-35.112626,139.295536,2,Unleaded,1599.0,2022-09-27T03:48:00,2022-09-27 14:00:15.559790,2022-09-27
61570202,169,On the Run,OTR Mount Barker Adelaide Road,24 Adelaide Rd,5251,-35.066786,138.856472,2,Unleaded,1899.0,2022-09-27T03:48:00,2022-09-27 14:00:15.559790,2022-09-27
61577030,169,On the Run,OTR Munno Para West,248 Curtis Road,5115,-34.672423,138.681396,2,Unleaded,1899.0,2022-09-27T03:48:00,2022-09-27 14:00:15.559790,2022-09-27
61577264,169,On the Run,OTR Mount Gambier East,1-3 Ramsay Avenue,5290,-37.834887,140.802375,2,Unleaded,1559.0,2022-09-27T03:48:00,2022-09-27 14:00:15.559790,2022-09-27
61577265,169,On the Run,OTR Aberfoyle Park,7 Park Avenue,5159,-35.074852,138.590363,2,Unleaded,1899.0,2022-09-27T03:48:00,2022-09-27 14:00:15.559790,2022-09-27
61577360,169,On the Run,OTR Marryatville,287 Kensington Road,5068,-34.926094,138.652074,2,Unleaded,1899.0,2022-09-27T03:48:00,2022-09-27 14:00:15.559790,2022-09-27
61205460,169,On the Run,OTR Dry Creek,11 Vader Street,5094,-34.819297,138.592116,2,Unleaded,1899.0,2022-09-27T03:49:00,2022-09-27 14:00:15.559790,2022-09-27
61501009,169,On the Run,OTR Pulteney Street,139 Angas St & Pulteney St,5000,-34.930514,138.605942,2,Unleaded,1899.0,2022-09-27T03:49:00,2022-09-27 14:00:15.559790,2022-09-27
61501014,169,On the Run,OTR Cavan Outbound Drive Thru,113-117 Port Wakefield Road,5094,-34.832464,138.598572,2,Unleaded,1899.0,2022-09-27T03:49:00,2022-09-27 14:00:15.559790,2022-09-27
61501029,169,On the Run,OTR Prospect,70 Prospect Rd & Marian Pl,5082,-34.891152,138.593874,2,Unleaded,1899.0,2022-09-27T03:49:00,2022-09-27 14:00:15.559790,2022-09-27
61501033,169,On the Run,OTR Blair Athol,Main North Road,5084,-34.861573,138.600594,2,Unleaded,1899.0,2022-09-27T03:49:00,2022-09-27 14:00:15.559790,2022-09-27
61501043,169,On the Run,OTR Broadview,150 Hampstead Rd & Watson Av,5083,-34.868597,138.618537,2,Unleaded,1899.0,2022-09-27T03:49:00,2022-09-27 14:00:15.559790,2022-09-27
61501045,169,On the Run,OTR Thorngate,20A Main North Rd & Carter St,5082,-34.896131,138.599527,2,Unleaded,1899.0,2022-09-27T03:49:00,2022-09-27 14:00:15.559790,2022-09-27
61501047,169,On the Run,OTR Greenacres,325 North East Rd & Fosters Rd,5086,-34.870337,138.637622,2,Unleaded,1899.0,2022-09-27T03:49:00,2022-09-27 14:00:15.559790,2022-09-27
61501049,169,On the Run,OTR Hillcrest,431 North East Rd & Forbes St,5086,-34.864657,138.644999,2,Unleaded,1899.0,2022-09-27T03:49:00,2022-09-27 14:00:15.559790,2022-09-27
61501056,169,On the Run,OTR Newton,72 Gorge Rd & Jan St,5074,-34.876163,138.674065,2,Unleaded,1899.0,2022-09-27T03:49:00,2022-09-27 14:00:15.559790,2022-09-27
61501058,169,On the Run,OTR Athelstone,310 Gorge Rd,5076,-34.871642,138.700406,2,Unleaded,1899.0,2022-09-27T03:49:00,2022-09-27 14:00:15.559790,2022-09-27
61501075,169,On the Run,OTR Fullarton,Fullarton Rd & Fisher St,5063,-34.956366,138.626129,2,Unleaded,1899.0,2022-09-27T03:49:00,2022-09-27 14:00:15.559790,2022-09-27
61501083,169,On the Run,OTR Marion,754 Marion Rd & Finniss St,5043,-35.005928,138.557791,2,Unleaded,1899.0,2022-09-27T03:49:00,2022-09-27 14:00:15.559790,2022-09-27
61501087,169,On the Run,OTR Glengowrie,Oaklands Road,5044,-34.996464,138.530637,2,Unleaded,1899.0,2022-09-27T03:49:00,2022-09-27 14:00:15.559790,2022-09-27
61501115,169,On the Run,OTR Paralowie,926-936 Port Wakefield Road,5108,-34.762803,138.593442,2,Unleaded,1899.0,2022-09-27T03:49:00,2022-09-27 14:00:15.559790,2022-09-27
61501120,169,On the Run,OTR Pooraka,126 Bridge Rd & Lincoln Cres,5095,-34.828298,138.631848,2,Unleaded,1899.0,2022-09-27T03:49:00,2022-09-27 14:00:15.559790,2022-09-27
61501122,169,On the Run,OTR Modbury,931 North East Rd & Wright Rd,5092,-34.833959,138.681829,2,Unleaded,1899.0,2022-09-27T03:49:00,2022-09-27 14:00:15.559790,2022-09-27
61501133,169,On the Run,OTR Salisbury Parabanks,106-110 Salisbury Hwy & Guerin St,5108,-34.764544,138.639765,2,Unleaded,1899.0,2022-09-27T03:49:00,2022-09-27 14:00:15.559790,2022-09-27
61501142,169,On the Run,OTR Davoren Park,41 Peachey Rd & Swallowcliffe Rd,5113,-34.697594,138.665971,2,Unleaded,1879.0,2022-09-27T03:49:00,2022-09-27 14:00:15.559790,2022-09-27
61501161,169,On the Run,OTR Largs Bay Military Road,354 Military Rd & Wills St,5016,-34.830651,138.487573,2,Unleaded,1899.0,2022-09-27T03:49:00,2022-09-27 14:00:15.559790,2022-09-27
61501164,169,On the Run,OTR Seaton,356 Tapleys Hill Rd & Wilford Av,5023,-34.902034,138.514044,2,Unleaded,1899.0,2022-09-27T03:49:00,2022-09-27 14:00:15.559790,2022-09-27
61501198,169,On the Run,OTR Flinders Park,148 Grange Rd & Holbrooks Rd,5025,-34.904824,138.551554,2,Unleaded,1889.0,2022-09-27T03:49:00,2022-09-27 14:00:15.559790,2022-09-27
61501202,169,On the Run,OTR West Croydon,563 Port Rd,5008,-34.893668,138.555438,2,Unleaded,1899.0,2022-09-27T03:49:00,2022-09-27 14:00:15.559790,2022-09-27
61501206,169,On the Run,OTR Alberton,156 Port Rd & Wellington St,5014,-34.859313,138.513321,2,Unleaded,1899.0,2022-09-27T03:49:00,2022-09-27 14:00:15.559790,2022-09-27
61501209,169,On the Run,OTR Woodville Park David Terrace,81 David Tce & Rofe Ct,5011,-34.880995,138.549846,2,Unleaded,1899.0,2022-09-27T03:49:00,2022-09-27 14:00:15.559790,2022-09-27
61501217,169,On the Run,OTR Brighton,480-484 Brighton Rd,5048,-35.019938,138.523319,2,Unleaded,1899.0,2022-09-27T03:49:00,2022-09-27 14:00:15.559790,2022-09-27
61501220,169,On the Run,OTR O'Halloran Hill,131 South Road,5158,-35.070922,138.554552,2,Unleaded,1899.0,2022-09-27T03:49:00,2022-09-27 14:00:15.559790,2022-09-27
61501221,169,On the Run,OTR Darlington,1483 Main South Rd,5047,-35.025189,138.561039,2,Unleaded,1899.0,2022-09-27T03:49:00,2022-09-27 14:00:15.559790,2022-09-27
61501230,169,On the Run,OTR Mitchell Park,843 Marion Rd & Quick Rd,5043,-35.002325,138.557954,2,Unleaded,1899.0,2022-09-27T03:49:00,2022-09-27 14:00:15.559790,2022-09-27
61501232,169,On the Run,OTR Seaview Downs,216 Seacombe Rd & Hume St,5049,-35.029867,138.533911,2,Unleaded,1899.0,2022-09-27T03:49:00,2022-09-27 14:00:15.559790,2022-09-27
61501238,169,On the Run,OTR Christies Beach on Beach Road,124 Beach Rd,5165,-35.139049,138.484419,2,Unleaded,1899.0,2022-09-27T03:49:00,2022-09-27 14:00:15.559790,2022-09-27
61501239,169,On the Run,OTR Christies Beach Gulfview Road,35 Gulfview Rd & Oceanview Rd,5165,-35.130701,138.474851,2,Unleaded,1899.0,2022-09-27T03:49:00,2022-09-27 14:00:15.559790,2022-09-27
61501241,169,On the Run,OTR Sheidow Park,Lonsdale Rd & Hutt Cl,5158,-35.075621,138.522377,2,Unleaded,1899.0,2022-09-27T03:49:00,2022-09-27 14:00:15.559790,2022-09-27
61501243,169,On the Run,OTR Glenside,282 Greenhill Rd & Conyngham St,5065,-34.939699,138.633952,2,Unleaded,1899.0,2022-09-27T03:49:00,2022-09-27 14:00:15.559790,2022-09-27
61501247,169,On the Run,OTR Linden Park,460 Greenhill Rd & Verdale Av,5065,-34.939041,138.650224,2,Unleaded,1899.0,2022-09-27T03:49:00,2022-09-27 14:00:15.559790,2022-09-27
61501259,169,On the Run,OTR Kensington Gardens,408 Magill Rd & Glynburn Rd,5068,-34.914388,138.658636,2,Unleaded,1899.0,2022-09-27T03:49:00,2022-09-27 14:00:15.559790,2022-09-27
61501268,169,On the Run,OTR Hazelwood Park,465 Glynburn Rd & Knightsbridge Rd,5066,-34.933263,138.659332,2,Unleaded,1899.0,2022-09-27T03:49:00,2022-09-27 14:00:15.559790,2022-09-27
61501272,169,On the Run,OTR Unley,17-19 King William Rd,5061,-34.942703,138.600246,2,Unleaded,1899.0,2022-09-27T03:49:00,2022-09-27 14:00:15.559790,2022-09-27
61501273,169,On the Run,OTR Kingswood,1 Belair Rd & Cross Rd,5062,-34.965911,138.609037,2,Unleaded,1899.0,2022-09-27T03:49:00,2022-09-27 14:00:15.559790,2022-09-27
61501276,169,On the Run,OTR Glenunga,303 Glen Osmond Rd,5064,-34.952729,138.635698,2,Unleaded,1899.0,2022-09-27T03:49:00,2022-09-27 14:00:15.559790,2022-09-27
61501278,169,On the Run,OTR Glen Osmond,411 Glen Osmond Rd,5064,-34.962802,138.643957,2,Unleaded,1899.0,2022-09-27T03:49:00,2022-09-27 14:00:15.559790,2022-09-27
61501322,169,On the Run,OTR Blackwood,203 Main Rd,5051,-35.016957,138.616736,2,Unleaded,1899.0,2022-09-27T03:49:00,2022-09-27 14:00:15.559790,2022-09-27
61501325,169,On the Run,OTR Belair,1 Main St,5052,-34.998412,138.623384,2,Unleaded,1899.0,2022-09-27T03:49:00,2022-09-27 14:00:15.559790,2022-09-27
61501331,169,On the Run,OTR Woodville South,1-3 Woodville Road,5011,-34.884829,138.531291,2,Unleaded,1899.0,2022-09-27T03:49:00,2022-09-27 14:00:15.559790,2022-09-27
61501345,169,On the Run,OTR Kurralta Park,488-494 South Rd,5037,-34.947278,138.571023,2,Unleaded,1899.0,2022-09-27T03:49:00,2022-09-27 14:00:15.559790,2022-09-27
61501351,169,On the Run,OTR Evanston,496 Main North Road,5116,-34.622578,138.739186,2,Unleaded,1899.0,2022-09-27T03:49:00,2022-09-27 14:00:15.559790,2022-09-27
61501356,169,On the Run,OTR Morphett Vale Outbound,140 Main South Rd,5162,-35.123695,138.523783,2,Unleaded,1899.0,2022-09-27T03:49:00,2022-09-27 14:00:15.559790,2022-09-27
61501358,169,On the Run,OTR Morphett Vale Inbound,131 Main South Rd,5162,-35.124549,138.523084,2,Unleaded,1899.0,2022-09-27T03:49:00,2022-09-27 14:00:15.559790,2022-09-27
61501377,169,On the Run,OTR Seaford,112 Commercial Rd,5169,-35.188412,138.477729,2,Unleaded,1879.0,2022-09-27T03:49:00,2022-09-27 14:00:15.559790,2022-09-27
61501392,169,On the Run,OTR Elizabeth South,John Rice Av & Commercial Rd,5112,-34.753114,138.649708,2,Unleaded,1899.0,2022-09-27T03:49:00,2022-09-27 14:00:15.559790,2022-09-27
61501395,169,On the Run,OTR Angle Vale,131-135 Heaslip Road,5117,-34.647999,138.643598,2,Unleaded,1899.0,2022-09-27T03:49:00,2022-09-27 14:00:15.559790,2022-09-27
61501399,169,On the Run,OTR Parafield,Kings Rd & Lawerence Hargrave Wy,5107,-34.791034,138.645494,2,Unleaded,1899.0,2022-09-27T03:49:00,2022-09-27 14:00:15.559790,2022-09-27
61501424,169,On the Run,OTR Bordertown,1 Dukes Highway,5268,-36.297749,140.757294,2,Unleaded,1659.0,2022-09-27T03:49:00,2022-09-27 14:00:15.559790,2022-09-27
61501573,169,On the Run,OTR Pinnaroo,Mallee Hwy,5304,-35.260458,140.913797,2,Unleaded,1649.0,2022-09-27T03:49:00,2022-09-27 14:00:15.559790,2022-09-27
61501581,169,On the Run,OTR Whyalla McRitchie,21-33 Mcritchie Cres,5608,-33.020289,137.525872,2,Unleaded,1659.0,2022-09-27T03:49:00,2022-09-27 14:00:15.559790,2022-09-27
61501646,169,On the Run,OTR West Terrace,41-49 West Tce & Currie St,5000,-34.925422,138.587777,2,Unleaded,1899.0,2022-09-27T03:49:00,2022-09-27 14:00:15.559790,2022-09-27
61501658,169,On the Run,OTR Elizabeth,Philip Hwy & Short Rd,5112,-34.722543,138.669381,2,Unleaded,1889.0,2022-09-27T03:49:00,2022-09-27 14:00:15.559790,2022-09-27
61501661,169,On the Run,OTR Stepney,90 Payneham Rd,5069,-34.910469,138.627422,2,Unleaded,1899.0,2022-09-27T03:49:00,2022-09-27 14:00:15.559790,2022-09-27
61501684,169,On the Run,OTR Kapunda,1 Mildred St,5373,-34.338984,138.917251,2,Unleaded,1649.0,2022-09-27T03:49:00,2022-09-27 14:00:15.559790,2022-09-27
61501691,169,On the Run,OTR Kadina,19 Frances Tce,5554,-33.964629,137.713593,2,Unleaded,1629.0,2022-09-27T03:49:00,2022-09-27 14:00:15.559790,2022-09-27
61501705,169,On the Run,OTR St Marys,1181 South Rd,5042,-34.997527,138.575784,2,Unleaded,1899.0,2022-09-27T03:49:00,2022-09-27 14:00:15.559790,2022-09-27
61501716,169,On the Run,OTR Parafield Gardens,237 Martins Rd,5107,-34.780962,138.608764,2,Unleaded,1899.0,2022-09-27T03:49:00,2022-09-27 14:00:15.559790,2022-09-27
61501717,169,On the Run,OTR Mount Barker Knott Street, 18 Knott Street (Cnr Hutchinson St),5251,-35.070439,138.862849,2,Unleaded,1899.0,2022-09-27T03:49:00,2022-09-27 14:00:15.559790,2022-09-27
61501808,169,On the Run,OTR Mount Gambier,29 Penola Rd,5290,-37.825314,140.782159,2,Unleaded,1599.0,2022-09-27T03:49:00,2022-09-27 14:00:15.559790,2022-09-27
61501819,169,On the Run,OTR Two Wells,Cnr Old Port Wakefield Rd & Artesian Rd,5501,-34.609693,138.529046,2,Unleaded,1899.0,2022-09-27T03:49:00,2022-09-27 14:00:15.559790,2022-09-27
61501933,169,On the Run,OTR Kingscote,10 Telegraph Rd,5223,-35.653209,137.638784,2,Unleaded,1859.0,2022-09-27T03:49:00,2022-09-27 14:00:15.559790,2022-09-27
61501972,169,On the Run,OTR Angle Park,610-612 South Rd,5010,-34.855772,138.564832,2,Unleaded,1899.0,2022-09-27T03:49:00,2022-09-27 14:00:15.559790,2022-09-27
61501985,169,On the Run,OTR Cavan Inbound,144 Port Wakefield Rd,5094,-34.830344,138.598955,2,Unleaded,1899.0,2022-09-27T03:49:00,2022-09-27 14:00:15.559790,2022-09-27
61501990,169,On the Run,OTR Hilton,79-81 Sir Donald Bradman Drive,5033,-34.932206,138.569344,2,Unleaded,1899.0,2022-09-27T03:49:00,2022-09-27 14:00:15.559790,2022-09-27
61501993,169,On the Run,OTR Old Reynella,133 Old South Rd,5161,-35.096236,138.536349,2,Unleaded,1899.0,2022-09-27T03:49:00,2022-09-27 14:00:15.559790,2022-09-27
61550276,169,On the Run,OTR Renmark,292 Renmark Av,5341,-34.181033,140.737092,2,Unleaded,1669.0,2022-09-27T03:49:00,2022-09-27 14:00:15.559790,2022-09-27
61550279,169,On the Run,OTR Port Lincoln,2 London St,5606,-34.723155,135.866826,2,Unleaded,1679.0,2022-09-27T03:49:00,2022-09-27 14:00:15.559790,2022-09-27
61570003,169,On the Run,OTR Port Lincoln Hallet Place,20 Hallet Pl,5606,-34.720183,135.855555,2,Unleaded,1679.0,2022-09-27T03:49:00,2022-09-27 14:00:15.559790,2022-09-27
61570164,169,On the Run,OTR Loxton French Road,Cnr Bookpurnong Tce & French St,5333,-34.427778,140.594038,2,Unleaded,1627.0,2022-09-27T03:49:00,2022-09-27 14:00:15.559790,2022-09-27
61570186,169,On the Run,OTR Loxton Roundabout,Bookpurnong Tce,5333,-34.452812,140.569685,2,Unleaded,1629.0,2022-09-27T03:49:00,2022-09-27 14:00:15.559790,2022-09-27
61570203,169,On the Run,OTR Ridleyton,231-237 South Rd,5008,-34.889769,138.570163,2,Unleaded,1899.0,2022-09-27T03:49:00,2022-09-27 14:00:15.559790,2022-09-27
61577203,169,On the Run,OTR Port Wakefield Road,885 Port Wakefield Road,5110,-34.768762,138.593695,2,Unleaded,1899.0,2022-09-27T03:49:00,2022-09-27 14:00:15.559790,2022-09-27
61577206,169,On the Run,OTR Mawson Lakes,7-9 Central Link,5095,-34.805375,138.614855,2,Unleaded,1899.0,2022-09-27T03:49:00,2022-09-27 14:00:15.559790,2022-09-27
